ocm_id,operator,usage_type,status,is_operational,address1,address2,town,state_province,postcode,country,latitude,longitude,title,num_points,connector_types,max_power_kw,all_connector_powers_kw,connection_statuses,borough,borough_density_km2,uk_avg_util_pct,uk_avg_energy_kWh,uk_usage_rows,priority_score,last_status_update,last_verified,submission_status,data_provider
253415,EV Dot,Public - Pay At Location,nan,nan,Rainsford Road,nan,Chelmsford,nan,CM1 2XB,GB,51.507351,-0.127758,BMM-CP-000504,,Type 2 (Socket Only); Type 2 (Socket Only),7.0,7,Operational,Unknown,9318.948648648648,50.216666666666676,36.881025641025644,78,0.13143698763646883,2023-05-04T08:44:00Z,2023-05-04T08:44:00Z,Imported and Published,UK National Charge Point Registry
4396,(Unknown Operator),nan,Operational,True,Spring Garden,Westminster,London,nan,SW1A 2BN,GB,51.507291,-0.128896,Masterpark Trafalgar Square Car Park,,nan,,nan,nan,Westminster,13608.4,50.216666666666676,36.881025641025644,78,0.20920358023104013,2011-05-17T17:23:00Z,2011-05-17T17:23:00Z,Submission Published,Open Charge Map Contributors
52877,BP Pulse (UK),Public - Membership Required,Operational,True,Spring Gardens,City of Westminster,London,nan,SW1A 2TS,GB,51.507099,-0.130117,Q-Park Trafalgar Car Park,8.0,BS1363 3 Pin 13 Amp; Type 2 (Socket Only),7.0,3; 7,Operational,Westminster,13608.4,50.216666666666676,36.881025641025644,78,0.22100961830375285,2023-04-03T16:58:00Z,2023-04-03T16:58:00Z,Submission Published,Open Charge Map Contributors
146490,VIRTA,"Private - For Staff, Visitors or Customers",Operational,True,440 Strand,Covent Garden,London,nan,WC2R 0QS,GB,51.50890313863235,-0.1255337882317917,Coutts Bank,1.0,Type 2 (Socket Only),7.0,7,Operational,Unknown,9318.948648648648,50.216666666666676,36.881025641025644,78,0.13143698763646883,2020-01-10T10:18:00Z,2020-01-10T10:18:00Z,Submission Published,Open Charge Map Contributors
4399,BP Pulse (UK),Public - Membership Required,Operational,True,Whitcomb Street,Westminster,London,nan,WC2H 7DT,GB,51.509162,-0.13065,Q-Park Leicester Square Car Park,4.0,Type 2 (Socket Only),4.0,4,Operational,Westminster,13608.4,50.216666666666676,36.881025641025644,78,0.21250698855329156,2023-04-03T17:00:00Z,2023-04-03T17:00:00Z,Submission Published,Open Charge Map Contributors
170689,POD Point (UK),Public - Membership Required,Operational,True,Whitehall Place,nan,Westminster,London,SW1A 2BD,GB,51.506477,-0.12377,Westminster-Whitehall Place,2.0,Type 2 (Socket Only),7.0,7,Operational,Westminster,13608.4,50.216666666666676,36.881025641025644,78,0.21279044022156107,2024-11-19T06:21:00Z,2024-11-19T06:21:00Z,Submission Published,Open Charge Map Contributors
104898,BP Pulse (UK),Public - Membership Required,Operational,True,Saint Martins Lane Hotel,nan,45 Saint Martin's Lane,London,WC2N 4HX,GB,51.510475,-0.126729,Saint Martins Lane Hotel,2.0,CCS (Type 2); CHAdeMO; Type 2 (Tethered Connector),50.0,43; 50,Operational,Unknown,9318.948648648648,50.216666666666676,36.881025641025644,78,0.17613906428805795,2023-08-23T10:23:00Z,2023-08-23T10:23:00Z,Submission Published,Open Charge Map Contributors
253530,Shell Recharge Solutions (UK),Public - Pay At Location,nan,nan,Junc. Bedfordbury,nan,London,nan,WC2N 4DQ,GB,51.510492,-0.125554,Junc. Bedfordbury,,Type 2 (Socket Only),5.0,5,Operational,Unknown,9318.948648648648,50.216666666666676,36.881025641025644,78,0.12942153583935764,2023-05-04T09:46:00Z,2023-05-04T09:46:00Z,Imported and Published,UK National Charge Point Registry
99712,POD Point (UK),"Private - For Staff, Visitors or Customers",Unknown,nan,5 - 7 Carlton Gardens,nan,London,nan,SW1Y 5AD,GB,51.506042,-0.133653,Stirling Square,4.0,Type 2 (Socket Only),7.0,7,Unknown,Unknown,9318.948648648648,50.216666666666676,36.881025641025644,78,0.13554657667756473,2023-10-09T13:27:00Z,2023-10-09T13:27:00Z,Submission Published,Open Charge Map Contributors
107862,BP Pulse (UK),Public - Membership Required,Operational,True,St James Square,Westminster,London,nan,SW1Y 4PD,GB,51.507729,-0.13457,St James Square,2.0,Type 2 (Socket Only),7.0,7,Operational,Westminster,13608.4,50.216666666666676,36.881025641025644,78,0.21279044022156107,2019-03-05T06:24:00Z,2019-03-05T06:24:00Z,Submission Published,Open Charge Map Contributors
129386,Charge Your Car,Public - Membership Required,Operational,True,St James's Square,nan,nan,nan,SW1Y 4PD,GB,51.50773,-0.13457,St James's Square,1.0,Type 2 (Socket Only),7.0,7,Operational,Unknown,9318.948648648648,50.216666666666676,36.881025641025644,78,0.13143698763646883,2019-07-19T05:13:00Z,2019-07-19T05:13:00Z,Submission Published,Open Charge Map Contributors
4413,(Unknown Operator),nan,Operational,True,Newport Place,Westminster,London,nan,WC2H 7PU,GB,51.512046,-0.129753,Masterpark Chinatown Car Park,,nan,,nan,nan,Westminster,13608.4,50.216666666666676,36.881025641025644,78,0.20920358023104013,2011-05-17T17:23:00Z,2011-05-17T17:23:00Z,Submission Published,Open Charge Map Contributors
253591,Shell Recharge Solutions (UK),Public - Pay At Location,nan,nan,5 Upper St Martin's Lane,nan,London,nan,WC2H 9NY,GB,51.512373,-0.12711,5 Upper St Martin's Lane,,Type 2 (Socket Only),3.7,3.7,Operational,Unknown,9318.948648648648,50.216666666666676,36.881025641025644,78,0.12811149217123538,2023-05-04T09:46:00Z,2023-05-04T09:46:00Z,Imported and Published,UK National Charge Point Registry
128396,BP Pulse (UK),Public - Membership Required,Operational,True,Q-Park Chinatown,nan,20 Newport Place,London,WC2H 7PR,GB,51.512299,-0.129615,Q-Park Chinatown,10.0,BS1363 3 Pin 13 Amp; Type 2 (Socket Only); Type 2 (Tethered Connector) ; CCS (Type 2); CHAdeMO,50.0,3; 43; 50; 7,Operational,Unknown,9318.948648648648,50.216666666666676,36.881025641025644,78,0.187097968397647,2023-04-03T16:57:00Z,2023-04-03T16:57:00Z,Submission Published,Open Charge Map Contributors
46743,Total Energies (UK),Public - Pay At Location,Operational,True,Southampton Street,City of Westminster,London,nan,WC2E 7HE,GB,51.5109927464186,-0.122040510177612,Southampton Street,2.0,Type 2 (Socket Only); Type 2 (Socket Only),22.0,22,Operational,Westminster,13608.4,50.216666666666676,36.881025641025644,78,0.22790632869989497,2025-06-14T18:44:00Z,2025-06-14T18:44:00Z,Submission Published,Open Charge Map Contributors
253607,BP Pulse (UK),Public - Membership Required,nan,nan,20 Newport Place,nan,London,nan,WC2H 7PR,GB,51.512699,-0.130012,Q-Park Chinatown,,BS1363 3 Pin 13 Amp; BS1363 3 Pin 13 Amp,3.0,3,Operational,Unknown,9318.948648648648,50.216666666666676,36.881025641025644,78,0.12740608404224646,2023-05-04T08:44:00Z,2023-05-04T08:44:00Z,Imported and Published,UK National Charge Point Registry
285956,Shell Recharge Solutions (UK),Public - Pay At Location,Unknown,nan,33 King Charles Street,nan,London,nan,SW1A 2AH,GB,51.501845,-0.127892,33 King Charles Street,,Type 2 (Socket Only),5.0,5,Operational,Unknown,9318.948648648648,50.216666666666676,36.881025641025644,78,0.12942153583935764,2023-12-07T08:10:00Z,2023-12-07T08:10:00Z,Imported and Published,UK National Charge Point Registry
253610,BP Pulse (UK),Public - Membership Required,nan,nan,20 Newport Place,nan,London,nan,WC2H 7PR,GB,51.512798,-0.130113,Q-Park Chinatown,,BS1363 3 Pin 13 Amp; Type 2 (Socket Only),22.0,22; 3,Operational,Unknown,9318.948648648648,50.216666666666676,36.881025641025644,78,0.14655287611480272,2023-05-04T08:44:00Z,2023-05-04T08:44:00Z,Imported and Published,UK National Charge Point Registry
4409,(Unknown Operator),nan,Operational,True,2 Lexington Street,Westminster,London,nan,W1F 0LA,GB,51.511865,-0.134884,NCP Brewer Street - Chargepost 1,,nan,,nan,nan,Westminster,13608.4,50.216666666666676,36.881025641025644,78,0.20920358023104013,2011-05-17T17:23:00Z,2011-05-17T17:23:00Z,Submission Published,Open Charge Map Contributors
253549,Shell Recharge Solutions (UK),Public - Pay At Location,nan,nan,nan,nan,London,nan,W1F 9UN,GB,51.511428,-0.135708,Shell Recharge/Ubitricity,,Type 2 (Socket Only),5.0,5,Operational,Unknown,9318.948648648648,50.216666666666676,36.881025641025644,78,0.12942153583935764,2023-05-04T09:46:00Z,2023-05-04T09:46:00Z,Imported and Published,UK National Charge Point Registry
253565,BP Pulse (UK),Public - Membership Required,nan,nan,City of London,nan,London,nan,WC2E 7DU,GB,51.511902,-0.119569,Exeter Street,,BS1363 3 Pin 13 Amp; BS1363 3 Pin 13 Amp,3.0,3,Operational,City of London,3651.6,50.216666666666676,36.881025641025644,78,0.021729424921564378,2023-05-04T08:44:00Z,2023-05-04T08:44:00Z,Imported and Published,UK National Charge Point Registry
5832,Elektromotive (UK),Public - Membership Required,Operational,True,Belvedere Road,nan,Lambeth,London,SE1 8XU,GB,51.5052551,-0.1168898,Belvedere Road Car Park,1.0,BS1363 3 Pin 13 Amp,,nan,nan,Lambeth,14883.6,50.216666666666676,36.881025641025644,78,0.2329816966069978,2014-09-13T03:56:00Z,2014-09-13T03:56:00Z,Submission Published,Open Charge Map Contributors
253213,Shell Recharge Solutions (UK),Public - Pay At Location,nan,nan,nan,nan,London,nan,SW1H 9AB,GB,51.501,-0.13328,Shell Recharge/Ubitricity,,Type 2 (Socket Only),5.0,5,Operational,Unknown,9318.948648648648,50.216666666666676,36.881025641025644,78,0.12942153583935764,2023-05-04T09:45:00Z,2023-05-04T09:45:00Z,Imported and Published,UK National Charge Point Registry
19466,BP Pulse (UK),Public - Membership Required,Operational,True,Opposite 17 Exeter Street,Westminster,London,nan,WC2E 7DU,GB,51.51229585,-0.119148037008377,Exeter Street,2.0,BS1363 3 Pin 13 Amp; Type 2 (Socket Only),7.0,3; 7,Operational; Unknown,Westminster,13608.4,50.216666666666676,36.881025641025644,78,0.21279044022156107,2023-04-03T16:57:00Z,2023-04-03T16:57:00Z,Submission Published,Open Charge Map Contributors
132780,Total Energies (UK),Public - Membership Required,Operational,True,33 Golden Square,nan,London,nan,W1F 9JT,GB,51.511818,-0.137617,Golden Square,1.0,Type 2 (Socket Only),22.0,22,Operational,Unknown,9318.948648648648,50.216666666666676,36.881025641025644,78,0.14655287611480272,2019-10-07T08:07:00Z,2019-10-07T08:07:00Z,Submission Published,Open Charge Map Contributors
187712,Shell Recharge Solutions (UK),Public - Pay At Location,nan,nan,23 Queen Anne's Gate,nan,London,nan,SW1H 9BU,GB,51.500544,-0.133597,23 Queen Anne's Gate,,Type 2 (Socket Only),3.7,3.7,Operational,Unknown,9318.948648648648,50.216666666666676,36.881025641025644,78,0.12811149217123538,2023-05-04T09:45:00Z,2023-05-04T09:45:00Z,Imported and Published,UK National Charge Point Registry
67840,POD Point (UK),"Private - For Staff, Visitors or Customers",Unknown,nan,19-25 Broadwick Street,Soho,London,nan,W1F 0DF,GB,51.513535,-0.135519,Trenchard House,4.0,Type 2 (Socket Only),7.0,7,Unknown,Unknown,9318.948648648648,50.216666666666676,36.881025641025644,78,0.13554657667756473,2023-10-09T13:23:00Z,2023-10-09T13:23:00Z,Submission Published,Open Charge Map Contributors
5510,(Unknown Operator),Public,Operational,True,Parker Street,Parker Mews,nan,London,WC2b 5NT,GB,51.51422,-0.12136,NCP Car Park Drury Lane,1.0,nan,,nan,nan,Unknown,9318.948648648648,50.216666666666676,36.881025641025644,78,0.1292199906596465,2014-09-13T03:56:00Z,2014-09-13T03:56:00Z,Submission Published,Open Charge Map Contributors
253707,Shell Recharge Solutions (UK),Public - Pay At Location,Operational,True,Opp.,nan,London,nan,W1D 3QR,GB,51.514955000000526,-0.1320930000022144,Soho Square South Side,1.0,Type 2 (Socket Only),5.0,5,Operational,Unknown,9318.948648648648,50.216666666666676,36.881025641025644,78,0.12942153583935764,2025-05-01T00:23:00Z,2025-05-01T00:23:00Z,Imported and Published,Open Charge Map Contributors
253685,Shell Recharge Solutions (UK),Public - Pay At Location,nan,nan,nan,nan,London,nan,W1F 8WG,GB,51.514418,-0.134767,Shell Recharge/Ubitricity,,Type 2 (Socket Only),5.0,5,Operational,Unknown,9318.948648648648,50.216666666666676,36.881025641025644,78,0.12942153583935764,2023-05-04T09:46:00Z,2023-05-04T09:46:00Z,Imported and Published,UK National Charge Point Registry
127806,BP Pulse (UK),Public - Membership Required,Operational,True,Carlisle Street,nan,Westminster,London,W1D 3BX,GB,51.515133,-0.132938,Carlisle Street,2.0,Type 2 (Socket Only),7.0,7,Operational,Westminster,13608.4,50.216666666666676,36.881025641025644,78,0.21279044022156107,2023-04-03T16:59:00Z,2023-04-03T16:59:00Z,Submission Published,Open Charge Map Contributors
4420,(Unknown Operator),nan,Operational,True,Dufours Place,Westminster,London,nan,W1F 7SJ,GB,51.513645,-0.137168,Broadwick Road Carpark,,nan,,nan,nan,Westminster,13608.4,50.216666666666676,36.881025641025644,78,0.20920358023104013,2011-05-17T17:23:00Z,2011-05-17T17:23:00Z,Submission Published,Open Charge Map Contributors
460394,Shell Recharge Solutions (UK),Public,Operational,True,20 Soho Square,nan,nan,nan,nan,GB,51.515559717462054,-0.1318936824986849,20 Soho Square,1.0,Type 2 (Socket Only),4.0,4,Operational,Unknown,9318.948648648648,50.216666666666676,36.881025641025644,78,0.12841380994080204,2025-08-15T14:39:00Z,2025-08-15T14:39:00Z,Submission Published,Open Charge Map Contributors
52879,BP Pulse (UK),Public - Membership Required,Operational,True,3-9 Old Burlington Street,City of Westminster,London,nan,W1S 3AF,GB,51.510632,-0.14051870000003,Q-Park Burlington Street,4.0,BS1363 3 Pin 13 Amp; Type 2 (Socket Only),7.0,3; 7,Operational,Westminster,13608.4,50.216666666666676,36.881025641025644,78,0.21553016624895835,2023-04-03T16:58:00Z,2023-04-03T16:58:00Z,Submission Published,Open Charge Map Contributors
101372,Charge Your Car,Public - Membership Required,Operational,True,Concert Hall Approach,nan,South Bank,London,SE1 8XU,GB,51.50463,-0.11455,Concert Hall Approach,1.0,Type 2 (Socket Only),7.0,7,Operational,Unknown,9318.948648648648,50.216666666666676,36.881025641025644,78,0.13143698763646883,2018-10-30T13:03:00Z,2018-10-30T13:03:00Z,Submission Published,Open Charge Map Contributors
53024,BP Pulse (UK),Public - Membership Required,Operational,True,Poland Street,City of Westminster,London,nan,W1F 7NQ,GB,51.514198,-0.136689,Q-Park Soho,2.0,BS1363 3 Pin 13 Amp; Type 2 (Socket Only); CHAdeMO; CCS (Type 2); Type 2 (Tethered Connector),50.0,3; 43; 50; 7,Operational,Westminster,13608.4,50.216666666666676,36.881025641025644,78,0.25612265385945154,2023-04-03T16:57:00Z,2023-04-03T16:57:00Z,Submission Published,Open Charge Map Contributors
16030,Zero Carbon World,"Private - For Staff, Visitors or Customers",Operational,True,200 Westminster Bridge Rd,nan,nan,London,SE1 7UT,GB,51.5014098,-0.117240600000059,Park Plaza Westminster Bridge Hotel,2.0,BS1363 3 Pin 13 Amp; Type 2 (Socket Only),7.0,3; 7,Operational,Westminster,13608.4,50.216666666666676,36.881025641025644,78,0.21279044022156107,2018-12-17T10:39:00Z,2018-12-17T10:39:00Z,Submission Published,Open Charge Map Contributors
253751,Shell Recharge Solutions (UK),Public - Pay At Location,nan,nan,Opp.,nan,London,nan,W1D 3QH,GB,51.516,-0.13187,Opp.,,Type 2 (Socket Only),5.0,5,Operational,Unknown,9318.948648648648,50.216666666666676,36.881025641025644,78,0.12942153583935764,2023-05-04T09:46:00Z,2023-05-04T09:46:00Z,Imported and Published,UK National Charge Point Registry
253772,BP Pulse (UK),Public - Membership Required,nan,nan,103 New Oxford Street,nan,London,nan,WC1A 1DD,GB,51.516312,-0.129476,Almacantar,,Type 2 (Socket Only); Type 2 (Socket Only),22.0,22; 7,Operational,Unknown,9318.948648648648,50.216666666666676,36.881025641025644,78,0.14655287611480272,2023-05-04T08:45:00Z,2023-05-04T08:45:00Z,Imported and Published,UK National Charge Point Registry
173461,Shell Recharge Solutions (UK),Public,nan,nan,20 Great Queen Street,nan,London,nan,WC2B 5AZ,GB,51.515614,-0.120802,20 Great Queen Street,,Type 2 (Socket Only),3.7,3.7,Operational,Unknown,9318.948648648648,50.216666666666676,36.881025641025644,78,0.12811149217123538,2025-06-14T18:32:00Z,2025-06-14T18:32:00Z,Imported and Published,UK National Charge Point Registry
4400,BP Pulse (UK),Public - Membership Required,Operational,True,Albemarle Street,Westminster,London,nan,W1S 4BS,GB,51.5096839873231,-0.142478942871094,Albemarle Street,2.0,BS1363 3 Pin 13 Amp; Type 2 (Socket Only),7.0,3; 7,Operational,Westminster,13608.4,50.216666666666676,36.881025641025644,78,0.21279044022156107,2023-04-03T16:59:00Z,2023-04-03T16:59:00Z,Submission Published,Open Charge Map Contributors
458973,Shell Recharge Solutions (UK),Public,Operational,True,4 Arundel Street,nan,London,England,nan,GB,51.51232110346069,-0.1143251871222901,4 Arundel Street,1.0,Type 2 (Socket Only),5.0,5,Operational,Unknown,9318.948648648648,50.216666666666676,36.881025641025644,78,0.12942153583935764,2025-06-29T03:04:00Z,2025-06-29T03:04:00Z,Submission Published,Open Charge Map Contributors
252974,BP Pulse (UK),Public - Membership Required,nan,nan,Great College Street,nan,London,nan,SW1P 3RX,GB,51.4977,-0.126443,Q-Park Westminster,,BS1363 3 Pin 13 Amp; Type 2 (Socket Only),22.0,22; 3,Operational,Westminster,13608.4,50.216666666666676,36.881025641025644,78,0.22653646568619634,2023-05-04T08:43:00Z,2023-05-04T08:43:00Z,Imported and Published,UK National Charge Point Registry
57086,Total Energies (UK),Public - Membership Required,Operational,True,Sardinia Street,London Borough of Camden,London,England,WC2B 6TE,GB,51.5151901467396,-0.118159841802967,Sardinia Street,1.0,Type 2 (Socket Only); Type 1 (J1772),7.0,4; 7,Operational,Camden,13988.4,50.216666666666676,36.881025641025644,78,0.2185062768807482,2024-12-15T14:19:00Z,2024-12-15T14:19:00Z,Submission Published,Open Charge Map Contributors
52878,BP Pulse (UK),Public - Membership Required,Operational,True,Great College Street,City of Westminster,London,nan,SW1P 3RX,GB,51.4975281,-0.127408500000001,Q-Park Westminster,6.0,BS1363 3 Pin 13 Amp; Type 2 (Socket Only),7.0,3; 7,Operational,Westminster,13608.4,50.216666666666676,36.881025641025644,78,0.2182698922763556,2023-04-03T16:58:00Z,2023-04-03T16:58:00Z,Submission Published,Open Charge Map Contributors
4376,(Unknown Operator),nan,Operational,True,Great College Street,Westminster,London,nan,SW1P 3RX,GB,51.497528,-0.127409,Masterpark Abingdon Car Park,,nan,,nan,nan,Westminster,13608.4,50.216666666666676,36.881025641025644,78,0.20920358023104013,2011-05-17T17:23:00Z,2011-05-17T17:23:00Z,Submission Published,Open Charge Map Contributors
4390,POD Point (UK),Public - Membership Required,Operational,True,Waterloo,Lambeth,London,nan,SE1 9PP,GB,51.5068393098305,-0.111933946609497,76 Upper Ground,2.0,Type 2 (Socket Only); Type 2 (Socket Only); Type 2 (Socket Only),22.0,22; 7,Operational,Lambeth,14883.6,50.216666666666676,36.881025641025644,78,0.25168444507585264,2024-08-24T05:34:00Z,2024-08-24T05:34:00Z,Submission Published,Open Charge Map Contributors
19465,Total Energies (UK),Public - Membership Required,Operational,True,Temple Place,Westminster,London,nan,WC2R 2PG,GB,51.5116935,-0.113055249442683,Temple Place,5.0,Type 2 (Socket Only); Type 1 (J1772); BS1363 3 Pin 13 Amp,7.0,3; 4; 7,Operational,Westminster,13608.4,50.216666666666676,36.881025641025644,78,0.21690002926265697,2019-05-12T05:32:00Z,2019-05-12T05:32:00Z,Submission Published,Open Charge Map Contributors
253491,Shell Recharge Solutions (UK),Public - Pay At Location,nan,nan,nan,nan,London,nan,W1J 8NR,GB,51.50908,-0.143872,Shell Recharge/Ubitricity,,Type 2 (Socket Only),5.0,5,Operational,Unknown,9318.948648648648,50.216666666666676,36.881025641025644,78,0.12942153583935764,2023-05-04T09:46:00Z,2023-05-04T09:46:00Z,Imported and Published,UK National Charge Point Registry
253042,Shell Recharge Solutions (UK),Public - Pay At Location,nan,nan,22 Caxton Street,nan,London,nan,SW1H 0QU,GB,51.498522,-0.13584,22 Caxton Street,,Type 2 (Socket Only),3.7,3.7,Operational,Unknown,9318.948648648648,50.216666666666676,36.881025641025644,78,0.12811149217123538,2023-05-04T09:45:00Z,2023-05-04T09:45:00Z,Imported and Published,UK National Charge Point Registry
136293,Shell Recharge Solutions (UK),Public - Pay At Location,nan,nan,Adeline Pl 15,nan,London,nan,WC1B 3AJ,GB,51.517603,-0.129837,Adeline Pl 15,,Type 2 (Socket Only),3.7,3.7,Operational,Unknown,9318.948648648648,50.216666666666676,36.881025641025644,78,0.12811149217123538,2023-05-05T04:00:00Z,2023-05-05T04:00:00Z,Imported and Published,UK National Charge Point Registry
253548,Total Energies (UK),Public - Membership Required,nan,nan,Temple Place site 2,nan,Westminster,nan,WC2R 2PG,GB,51.511407,-0.112471,Temple Place site 2,,Type 1 (J1772); Type 2 (Socket Only),7.0,3; 7,Operational,Westminster,13608.4,50.216666666666676,36.881025641025644,78,0.21142057720786245,2023-03-08T04:20:00Z,2023-03-08T04:20:00Z,Imported and Published,UK National Charge Point Registry
253603,Shell Recharge Solutions (UK),Public - Pay At Location,nan,nan,Opp.,nan,London,nan,W1S 2AT,GB,51.512568,-0.142311,Opp.,,Type 2 (Socket Only),5.0,5,Operational,Unknown,9318.948648648648,50.216666666666676,36.881025641025644,78,0.12942153583935764,2023-05-04T09:46:00Z,2023-05-04T09:46:00Z,Imported and Published,UK National Charge Point Registry
136295,Shell Recharge Solutions (UK),Public - Pay At Location,nan,nan,Adeline Pl 12,nan,London,nan,WC1B 3AJ,GB,51.517782,-0.130023,Adeline Pl 12,,Type 2 (Socket Only),3.7,3.7,Operational,Unknown,9318.948648648648,50.216666666666676,36.881025641025644,78,0.12811149217123538,2023-05-05T04:00:00Z,2023-05-05T04:00:00Z,Imported and Published,UK National Charge Point Registry
252927,Shell Recharge Solutions (UK),Public - Pay At Location,nan,nan,27 Great Peter Street,nan,London,nan,SW1P 3LN,GB,51.496896,-0.127436,27 Great Peter Street,,Type 2 (Socket Only),3.7,3.7,Operational,Unknown,9318.948648648648,50.216666666666676,36.881025641025644,78,0.12811149217123538,2023-05-04T09:45:00Z,2023-05-04T09:45:00Z,Imported and Published,UK National Charge Point Registry
43412,Total Energies (UK),Public - Membership Required,Operational,True,Lincolns Inn Fields,Westminster,London,nan,WC2A 3PE,GB,51.5152860135492,-0.116643905639648,"Lincolns Inn Fields, Westminster",5.0,Type 2 (Socket Only); Type 1 (J1772),7.0,4; 7,Operational,Westminster,13608.4,50.216666666666676,36.881025641025644,78,0.21690002926265697,2020-01-10T09:49:00Z,2020-01-10T09:49:00Z,Submission Published,Open Charge Map Contributors
252924,Shell Recharge Solutions (UK),Public - Pay At Location,nan,nan,Great Peter St 31,nan,London,nan,SW1P 3NQ,GB,51.496887,-0.127973,Great Peter St 31,,Type 2 (Socket Only),3.7,3.7,Operational,Unknown,9318.948648648648,50.216666666666676,36.881025641025644,78,0.12811149217123538,2023-05-05T04:00:00Z,2023-05-05T04:00:00Z,Imported and Published,UK National Charge Point Registry
252926,Shell Recharge Solutions (UK),Public - Pay At Location,nan,nan,Great Peter St 41,nan,London,nan,SW1P 3LT,GB,51.496895,-0.128714,Great Peter St 41,,Type 2 (Socket Only),3.7,3.7,Operational,Unknown,9318.948648648648,50.216666666666676,36.881025641025644,78,0.12811149217123538,2023-05-05T04:00:00Z,2023-05-05T04:00:00Z,Imported and Published,UK National Charge Point Registry
126177,POD Point (UK),Public - Membership Required,Operational,True,Lincoln's Inn Fields,nan,Westminster,London,WC2A 3PE,GB,51.515375,-0.116745,Westminster-Lincoln's Inn Fields,2.0,Type 2 (Socket Only),7.0,7,Operational,Westminster,13608.4,50.216666666666676,36.881025641025644,78,0.21279044022156107,2025-03-05T16:42:00Z,2025-03-05T16:42:00Z,Submission Published,Open Charge Map Contributors
268058,Total Energies (UK),Public,nan,nan,Stephens Street,nan,Camden Town,nan,W1T 1AL,GB,51.517475,-0.133047,Stephens Street,,Type 2 (Socket Only),22.0,22,Operational,Camden,13988.4,50.216666666666676,36.881025641025644,78,0.2336221653590821,2025-05-01T00:28:00Z,2025-05-01T00:28:00Z,Imported and Published,UK National Charge Point Registry
252921,Shell Recharge Solutions (UK),Public - Pay At Location,nan,nan,Great Peter St 16,nan,London,nan,SW1P 2BX,GB,51.496866,-0.129591,Great Peter St 16,,Type 2 (Socket Only),3.7,3.7,Operational,Unknown,9318.948648648648,50.216666666666676,36.881025641025644,78,0.12811149217123538,2023-05-05T04:00:00Z,2023-05-05T04:00:00Z,Imported and Published,UK National Charge Point Registry
118286,Charge Your Car,Public - Membership Required,Operational,True,Cornwall Road,nan,Lambeth,Greater London,SE1 9PU,GB,51.50542,-0.11099,"Cornwall Road, Lambeth",2.0,Type 2 (Socket Only),7.0,7,Operational,Lambeth,14883.6,50.216666666666676,36.881025641025644,78,0.23656855659751874,2019-03-22T06:19:00Z,2019-03-22T06:19:00Z,Submission Published,Open Charge Map Contributors
205270,Total Energies (UK),Public - Pay At Location,Operational,True,Adeline Place,nan,London,England,WC1B 3AH,GB,51.51798,-0.130288,Adeline Place,2.0,Type 2 (Socket Only); Type 2 (Socket Only),22.0,22,Operational,Unknown,9318.948648648648,50.216666666666676,36.881025641025644,78,0.14792273912850135,2025-05-01T00:36:00Z,2025-05-01T00:36:00Z,Submission Published,Open Charge Map Contributors
53025,BP Pulse (UK),Public - Membership Required,Operational,True,Berkeley Square,City of Westminster,London,nan,W1J 6EG,GB,51.509495,-0.144767,Berkeley Square,2.0,BS1363 3 Pin 13 Amp; Type 2 (Socket Only); Type 2 (Socket Only),7.0,3; 4; 7,Operational; Unknown,Westminster,13608.4,50.216666666666676,36.881025641025644,78,0.21279044022156107,2023-04-03T16:57:00Z,2023-04-03T16:57:00Z,Submission Published,Open Charge Map Contributors
173459,Shell Recharge Solutions (UK),Public,nan,nan,24 Little Russell Street,nan,London,nan,WC1A 2HS,GB,51.518054,-0.12494,24 Little Russell Street,,Type 2 (Socket Only),3.7,3.7,Operational,Unknown,9318.948648648648,50.216666666666676,36.881025641025644,78,0.12811149217123538,2023-05-04T09:46:00Z,2023-05-04T09:46:00Z,Imported and Published,UK National Charge Point Registry
125894,BP Pulse (UK),Public - Membership Required,Operational,True,Berkeley Square,nan,Westminster,nan,W1J 6ES,GB,51.509472,-0.14487,Berkeley Square,1.0,Type 2 (Socket Only),7.0,7,Operational,Westminster,13608.4,50.216666666666676,36.881025641025644,78,0.21142057720786245,2023-04-03T17:00:00Z,2023-04-03T17:00:00Z,Submission Published,Open Charge Map Contributors
5835,Total Energies (UK),Public - Membership Required,Unknown,nan,Museum Street,nan,Camden,London,WC1A 1JP,GB,51.5181387,-0.1255737,Holborn NCP Car Park,4.0,BS1363 3 Pin 13 Amp,3.0,3,Operational,Camden,13988.4,50.216666666666676,36.881025641025644,78,0.21858496232762173,2016-11-03T10:28:00Z,2016-11-03T10:28:00Z,Submission Published,Open Charge Map Contributors
45049,POD Point (UK),Public - Membership Required,Operational,True,5 Spenser Street,Westminster,London,nan,SW1E 6AA,GB,51.497912,-0.136349,5 Spenser Street,4.0,Type 2 (Socket Only); Type 2 (Socket Only),3.0,3,Operational,Westminster,13608.4,50.216666666666676,36.881025641025644,78,0.21149926265473598,2025-03-05T16:42:00Z,2025-03-05T16:42:00Z,Submission Published,Open Charge Map Contributors
60268,POD Point (UK),"Private - For Staff, Visitors or Customers",Unknown,nan,73 Great Peter Street,Millbank,London,nan,SW1P 2BN,GB,51.496653,-0.13111,Society of Motor Traders,5.0,Type 2 (Socket Only),7.0,7,Unknown,Unknown,9318.948648648648,50.216666666666676,36.881025641025644,78,0.13691643969126335,2023-10-09T13:30:00Z,2023-10-09T13:30:00Z,Submission Published,Open Charge Map Contributors
253851,Shell Recharge Solutions (UK),Public,nan,nan,2 Bury Place,nan,London,nan,WC1A 2JU,GB,51.518144,-0.12398,2 Bury Place,,Type 2 (Socket Only),3.7,3.7,Operational,Unknown,9318.948648648648,50.216666666666676,36.881025641025644,78,0.12811149217123538,2023-05-04T09:46:00Z,2023-05-04T09:46:00Z,Imported and Published,UK National Charge Point Registry
173531,Shell Recharge Solutions (UK),Public - Pay At Location,nan,nan,14 St George Street,nan,London,nan,W1S 1FH,GB,51.512844,-0.143349,14 St George Street,,Type 2 (Socket Only),3.7,3.7,Operational,Unknown,9318.948648648648,50.216666666666676,36.881025641025644,78,0.12811149217123538,2023-05-04T09:46:00Z,2023-05-04T09:46:00Z,Imported and Published,UK National Charge Point Registry
252909,Shell Recharge Solutions (UK),Public - Pay At Location,nan,nan,Great Peter Street,nan,London,nan,SW1P 2JX,GB,51.496731,-0.132808,Great Peter Street,,Type 2 (Socket Only),3.7,3.7,Operational,Unknown,9318.948648648648,50.216666666666676,36.881025641025644,78,0.12811149217123538,2023-05-04T09:45:00Z,2023-05-04T09:45:00Z,Imported and Published,UK National Charge Point Registry
173460,Shell Recharge Solutions (UK),Public,nan,nan,17 Southampton Place,nan,London,nan,WC1A 2DB,GB,51.517947,-0.121831,17 Southampton Place,,Type 2 (Socket Only),3.7,3.7,Operational,Unknown,9318.948648648648,50.216666666666676,36.881025641025644,78,0.12811149217123538,2022-08-23T11:09:00Z,2022-08-23T11:09:00Z,Imported and Published,UK National Charge Point Registry
460396,Total Energies (UK),Public,Operational,True,15 Berkeley Square,nan,nan,nan,W1J 6EG,GB,51.5098719676356,-0.1453217303424026,15 Berkeley Square,2.0,Type 2 (Socket Only),22.0,22,Operational,Unknown,9318.948648648648,50.216666666666676,36.881025641025644,78,0.14792273912850135,2025-08-15T15:57:00Z,2025-08-15T15:57:00Z,Submission Published,Open Charge Map Contributors
52972,BP Pulse (UK),Public - Membership Required,Operational,True,16-18 Berners Street,City of Westminster,London,nan,W1T 3LN,GB,51.517235,-0.136815,Berners Street,2.0,BS1363 3 Pin 13 Amp; Type 2 (Socket Only),7.0,3; 7,Operational,Westminster,13608.4,50.216666666666676,36.881025641025644,78,0.21279044022156107,2023-04-03T16:59:00Z,2023-04-03T16:59:00Z,Submission Published,Open Charge Map Contributors
92443,POD Point (UK),"Private - For Staff, Visitors or Customers",Unknown,nan,16 Lower Marsh,nan,London,nan,SE1 7RJ,GB,51.500361,-0.113099,Islamic Relief UK,1.0,Type 2 (Socket Only),7.0,7,Unknown,Unknown,9318.948648648648,50.216666666666676,36.881025641025644,78,0.13143698763646883,2023-10-09T13:27:00Z,2023-10-09T13:27:00Z,Submission Published,Open Charge Map Contributors
264631,Shell Recharge Solutions (UK),Public - Pay At Location,nan,nan,nan,nan,London,nan,SW1P 2BQ,GB,51.496,-0.13085,Shell Recharge/Ubitricity,,Type 2 (Socket Only),5.0,5,Operational,Unknown,9318.948648648648,50.216666666666676,36.881025641025644,78,0.12942153583935764,2023-05-04T09:45:00Z,2023-05-04T09:45:00Z,Imported and Published,UK National Charge Point Registry
253462,Shell Recharge Solutions (UK),Public - Pay At Location,nan,nan,nan,nan,London,nan,W1J 5DJ,GB,51.508257,-0.146484,Shell Recharge/Ubitricity,,Type 2 (Socket Only),5.0,5,Operational,Unknown,9318.948648648648,50.216666666666676,36.881025641025644,78,0.12942153583935764,2023-05-04T09:45:00Z,2023-05-04T09:45:00Z,Imported and Published,UK National Charge Point Registry
214237,Shell Recharge Solutions (UK),Public - Pay At Location,nan,nan,Opp.,nan,London,nan,W1B 2LY,GB,51.514586,-0.142564,Opp.,,Type 2 (Socket Only),5.0,5,Operational,Unknown,9318.948648648648,50.216666666666676,36.881025641025644,78,0.12942153583935764,2023-05-04T09:46:00Z,2023-05-04T09:46:00Z,Imported and Published,UK National Charge Point Registry
253550,Shell Recharge Solutions (UK),Public - Pay At Location,nan,nan,Opp.,nan,London,nan,W1K 3QU,GB,51.511441,-0.145558,Opp.,,Type 2 (Socket Only),5.0,5,Operational,Unknown,9318.948648648648,50.216666666666676,36.881025641025644,78,0.12942153583935764,2023-05-04T09:46:00Z,2023-05-04T09:46:00Z,Imported and Published,UK National Charge Point Registry
52918,BP Pulse (UK),Public - Membership Required,Operational,True,Mayfair,City of Westminster,London,nan,W1J 7AF,GB,51.506001,-0.146775,NCP Carrington Street,2.0,BS1363 3 Pin 13 Amp,3.0,3,Operational,Westminster,13608.4,50.216666666666676,36.881025641025644,78,0.2087595366273387,2019-03-09T06:38:00Z,2019-03-09T06:38:00Z,Submission Published,Open Charge Map Contributors
268054,Total Energies (UK),Public,nan,nan,18 Grosvenor Street,nan,City of Westminster,nan,W1K 4PZ,GB,51.512165,-0.145341,Grosvenor Street,,Type 2 (Socket Only),22.0,22,Operational,Westminster,13608.4,50.216666666666676,36.881025641025644,78,0.22653646568619634,2023-12-07T08:10:00Z,2023-12-07T08:10:00Z,Imported and Published,UK National Charge Point Registry
4443,(Unknown Operator),nan,Operational,True,Bloomsbury Square,Camden,London,nan,WC1A 2RJ,GB,51.5190133,-0.1222460000000182,Bloomsbury Square Car Park,,nan,,nan,nan,Camden,13988.4,50.216666666666676,36.881025641025644,78,0.21628927990392588,2014-03-23T10:52:00Z,2014-03-23T10:52:00Z,Submission Published,Open Charge Map Contributors
253070,Shell Recharge Solutions (UK),Public - Pay At Location,nan,nan,14 Stafford Place,nan,London,nan,SW1E 6NP,GB,51.498965,-0.141783,14 Stafford Place,,Type 2 (Socket Only),3.7,3.7,Operational,Unknown,9318.948648648648,50.216666666666676,36.881025641025644,78,0.12811149217123538,2023-05-04T09:45:00Z,2023-05-04T09:45:00Z,Imported and Published,UK National Charge Point Registry
52817,BP Pulse (UK),Public - Membership Required,Operational,True,45-47 Berners Street,nan,London,nan,W1T 3NE,GB,51.518002,-0.137539,NCP Berners Street,2.0,BS1363 3 Pin 13 Amp; Type 2 (Socket Only),4.0,3; 4,Operational,Unknown,9318.948648648648,50.216666666666676,36.881025641025644,78,0.12978367295450066,2019-03-07T06:38:00Z,2019-03-07T06:38:00Z,Submission Published,Open Charge Map Contributors
4427,(Unknown Operator),nan,Operational,True,Lincolns Inn Fields,Camden,London,nan,WC2A 3TL,GB,51.51643,-0.114483,Lincolns Inn,,nan,,nan,nan,Camden,13988.4,50.216666666666676,36.881025641025644,78,0.21628927990392588,2011-05-17T17:23:00Z,2011-05-17T17:23:00Z,Submission Published,Open Charge Map Contributors
253567,Shell Recharge Solutions (UK),Public - Pay At Location,nan,nan,nan,nan,London,nan,W1K 4PS,GB,51.511983,-0.146098,Shell Recharge/Ubitricity,,Type 2 (Socket Only),5.0,5,Operational,Unknown,9318.948648648648,50.216666666666676,36.881025641025644,78,0.12942153583935764,2023-05-04T09:46:00Z,2023-05-04T09:46:00Z,Imported and Published,UK National Charge Point Registry
4405,BP Pulse (UK),Public - Membership Required,Operational,True,21 Grosvenor Hill,Westminster,London,nan,W1K 3QQ,GB,51.510944,-0.146848,NCP Grosvenor Hill,2.0,BS1363 3 Pin 13 Amp,3.0,3,Operational,Westminster,13608.4,50.216666666666676,36.881025641025644,78,0.2087595366273387,2019-03-05T06:36:00Z,2019-03-05T06:36:00Z,Submission Published,Open Charge Map Contributors
4404,(Unknown Operator),nan,Operational,True,21 Grosvenor Hill,Westminster,London,nan,W1K 3QQ,GB,51.510944,-0.146848,NCP Grosvenor Hill,,nan,,nan,nan,Westminster,13608.4,50.216666666666676,36.881025641025644,78,0.20920358023104013,2011-05-17T17:23:00Z,2011-05-17T17:23:00Z,Submission Published,Open Charge Map Contributors
252872,Shell Recharge Solutions (UK),Public - Pay At Location,nan,nan,opp.,nan,London,nan,SW1P 1AB,GB,51.495919,-0.135237,opp.,,Type 2 (Socket Only),5.0,5,Operational,Unknown,9318.948648648648,50.216666666666676,36.881025641025644,78,0.12942153583935764,2023-05-04T09:45:00Z,2023-05-04T09:45:00Z,Imported and Published,UK National Charge Point Registry
95361,POD Point (UK),Public - Membership Required,Operational,True,Palace Street,Westminster,London,nan,SW1E 5JL,GB,51.497297,-0.139462,Palace Street,2.0,Type 2 (Socket Only),7.0,7,Operational,Westminster,13608.4,50.216666666666676,36.881025641025644,78,0.21279044022156107,2024-08-15T05:22:00Z,2024-08-15T05:22:00Z,Submission Published,Open Charge Map Contributors
252877,Shell Recharge Solutions (UK),Public - Pay At Location,nan,nan,nan,nan,London,nan,SW1P 1AB,GB,51.496,-0.13586,Shell Recharge/Ubitricity,,Type 2 (Socket Only),5.0,5,Operational,Unknown,9318.948648648648,50.216666666666676,36.881025641025644,78,0.12942153583935764,2023-05-04T09:45:00Z,2023-05-04T09:45:00Z,Imported and Published,UK National Charge Point Registry
85098,(Business Owner at Location),"Private - For Staff, Visitors or Customers",Operational,True,Horseferry Road,City of Westminster,London,nan,SW1P 3RE,GB,51.4948439,-0.12867,Zipcar Horseferry Road,2.0,Type 2 (Socket Only),7.0,7,Operational,Westminster,13608.4,50.216666666666676,36.881025641025644,78,0.21279044022156107,2017-03-25T22:02:00Z,2017-03-25T22:02:00Z,Submission Published,Open Charge Map Contributors
253825,Total Energies (UK),Public - Membership Required,nan,nan,Newmans Row,nan,Camden,nan,WC2A 3PD,GB,51.5175,-0.115606,Newmans Row,,Type 1 (J1772); Type 2 (Socket Only),7.0,3; 7,Operational,Camden,13988.4,50.216666666666676,36.881025641025644,78,0.2185062768807482,2023-03-08T04:20:00Z,2023-03-08T04:20:00Z,Imported and Published,UK National Charge Point Registry
56960,POD Point (UK),Public - Membership Required,Operational,True,Horseferry Road,Millbank,London,England,SW1P 4DR,GB,51.494767503224,-0.130060857177789,Horseferry Road,2.0,Type 2 (Socket Only),7.0,7,Operational,Unknown,9318.948648648648,50.216666666666676,36.881025641025644,78,0.13280685065016745,2025-01-27T06:18:00Z,2025-01-27T06:18:00Z,Submission Published,Open Charge Map Contributors
147933,BP Pulse (UK),Private - Restricted Access,Operational,True,33 Horseferry Road,Millbank,London,England,SW1P 4DR,GB,51.494678,-0.129862,Department for Transport,1.0,CCS (Type 2); CHAdeMO; Type 2 (Tethered Connector),50.0,43; 50,Operational,Unknown,9318.948648648648,50.216666666666676,36.881025641025644,78,0.17476920127435933,2023-08-23T10:44:00Z,2023-08-23T10:44:00Z,Submission Published,Open Charge Map Contributors
4456,Total Energies (UK),Public - Membership Required,Operational,True,40 Charlotte Street,Camden,London,nan,W1T 2NH,GB,51.519293,-0.135446,Charlotte Street,1.0,Type 1 (J1772); Type 2 (Socket Only),7.0,4; 7,Operational,Camden,13988.4,50.216666666666676,36.881025641025644,78,0.2185062768807482,2019-05-12T05:29:00Z,2019-05-12T05:29:00Z,Submission Published,Open Charge Map Contributors
252820,ESB Energy (UK),Public - Pay At Location,nan,nan,"Regency Place, Belgravia, Westminster, SW1P 2DZ",nan,Westminster,nan,SW1P 2DZ,GB,51.494868,-0.132312,"Regency Place, Belgravia",,CHAdeMO; Type 2 (Tethered Connector) ; Type 2 (Tethered Connector),50.0,43; 50,Operational,Westminster,13608.4,50.216666666666676,36.881025641025644,78,0.2547527908457529,2023-05-04T08:43:00Z,2023-05-04T08:43:00Z,Imported and Published,UK National Charge Point Registry
136167,Total Energies (UK),Public - Membership Required,nan,nan,7 Francis Street,nan,Victoria Station,nan,SW1P 1QP,GB,51.495977,-0.137269,7 Francis Street,,BS1363 3 Pin 13 Amp; Type 2 (Socket Only),7.0,3.7; 7,Operational,Unknown,9318.948648648648,50.216666666666676,36.881025641025644,78,0.13143698763646883,2022-08-23T11:08:00Z,2022-08-23T11:08:00Z,Imported and Published,UK National Charge Point Registry
57552,Total Energies (UK),Public - Membership Required,Operational,True,8 Store Street,nan,London,nan,W1B 1AD,GB,51.5201029380956,-0.131020545959473,"Store Street, London WC1",1.0,Type 2 (Socket Only); Type 1 (J1772),7.0,4; 7,Operational,Unknown,9318.948648648648,50.216666666666676,36.881025641025644,78,0.13143698763646883,2019-05-12T05:28:00Z,2019-05-12T05:28:00Z,Submission Published,Open Charge Map Contributors
167016,ESB Energy (UK),Public - Pay At Location,Operational,True,"195 Carlisle Lane, Lambeth",nan,London,England,SE17LH,GB,51.497106,-0.115396,Carlisle Lane Parking/Charging,1.0,CHAdeMO; CCS (Type 2); Type 2 (Tethered Connector),50.0,43; 50,Operational,Lambeth,14883.6,50.216666666666676,36.881025641025644,78,0.2785309072217106,2024-07-02T11:39:00Z,2024-07-02T11:39:00Z,Imported and Published,Open Charge Map Contributors
252803,Shell Recharge Solutions (UK),Public - Pay At Location,nan,nan,2 Dean Ryle Street,nan,London,nan,SW1P 4DA,GB,51.494536,-0.126872,2 Dean Ryle Street,,Type 2 (Socket Only),3.7,3.7,Operational,Unknown,9318.948648648648,50.216666666666676,36.881025641025644,78,0.12811149217123538,2023-05-04T09:45:00Z,2023-05-04T09:45:00Z,Imported and Published,UK National Charge Point Registry
252801,Shell Recharge Solutions (UK),Public - Pay At Location,nan,nan,nan,nan,London,nan,SW1P 4DA,GB,51.494531,-0.126872,Shell Recharge/Ubitricity,,Type 2 (Socket Only),5.0,5,Operational,Unknown,9318.948648648648,50.216666666666676,36.881025641025644,78,0.12942153583935764,2023-05-04T09:45:00Z,2023-05-04T09:45:00Z,Imported and Published,UK National Charge Point Registry
252830,Shell Recharge Solutions (UK),Public - Pay At Location,nan,nan,17 Rochester Street,nan,London,nan,SW1P 2QQ,GB,51.495249,-0.134985,17 Rochester Street,,Type 2 (Socket Only),3.7,3.7,Operational,Unknown,9318.948648648648,50.216666666666676,36.881025641025644,78,0.12811149217123538,2023-05-04T09:45:00Z,2023-05-04T09:45:00Z,Imported and Published,UK National Charge Point Registry
259503,Char.gy,Public,Operational,True,16 Hatfields,nan,London,nan,SE1 8DJ,GB,51.5064914,-0.1070171,16 Hatfields,1.0,Type 2 (Socket Only),5.1,5.1,Operational,Unknown,9318.948648648648,50.216666666666676,36.881025641025644,78,0.1295223084292132,2023-05-27T05:54:00Z,2023-05-27T05:54:00Z,Submission Published,Open Charge Map Contributors
286036,Shell Recharge Solutions (UK),Public - Pay At Location,Unknown,nan,7 Buckingham Palace Rd,nan,London,nan,SW1W 0PP,GB,51.508123,-0.14861,7 Buckingham Palace Rd,,Type 2 (Socket Only),3.7,3.7,Operational,Unknown,9318.948648648648,50.216666666666676,36.881025641025644,78,0.12811149217123538,2023-12-07T08:10:00Z,2023-12-07T08:10:00Z,Imported and Published,UK National Charge Point Registry
77654,POD Point (UK),"Private - For Staff, Visitors or Customers",Unknown,nan,Multiplex Construction Office,nan,London,nan,SW1E 5DU,GB,51.498136,-0.142448,Dornan Engineering,1.0,Type 2 (Socket Only),7.0,7,Operational,Unknown,9318.948648648648,50.216666666666676,36.881025641025644,78,0.13143698763646883,2025-01-31T06:34:00Z,2025-01-31T06:34:00Z,Submission Published,Open Charge Map Contributors
252886,Shell Recharge Solutions (UK),Public - Pay At Location,nan,nan,opposite 115 Thirleby Gardens,nan,London,nan,SW1P 1HJ,GB,51.496199,-0.138431,opposite 115 Thirleby Gardens,,Type 2 (Socket Only),3.7,3.7,Operational,Unknown,9318.948648648648,50.216666666666676,36.881025641025644,78,0.12811149217123538,2023-05-04T09:45:00Z,2023-05-04T09:45:00Z,Imported and Published,UK National Charge Point Registry
259511,Char.gy,Public,Operational,True,19 Hatfields,nan,London,nan,SE1 8DJ,GB,51.5059876,-0.1068167,19 Hatfields,1.0,Type 2 (Socket Only),5.1,5.1,Operational,Unknown,9318.948648648648,50.216666666666676,36.881025641025644,78,0.1295223084292132,2023-05-27T05:54:00Z,2023-05-27T05:54:00Z,Submission Published,Open Charge Map Contributors
72053,POD Point (UK),"Private - For Staff, Visitors or Customers",Unknown,nan,76 Marsham Street,Millbank,London,England,SW1P 4LY,GB,51.4943511,-0.130313900000033,Drake House,14.0,Type 2 (Socket Only),7.0,7,Operational,Unknown,9318.948648648648,50.216666666666676,36.881025641025644,78,0.14924520681455103,2020-01-14T14:58:00Z,2020-01-14T14:58:00Z,Submission Published,Open Charge Map Contributors
253861,Shell Recharge Solutions (UK),Public - Pay At Location,nan,nan,57 Wells street,nan,London,nan,W1T 3PT,GB,51.518365,-0.139669,57 Wells street,,Type 2 (Socket Only),3.7,3.7,Operational,Unknown,9318.948648648648,50.216666666666676,36.881025641025644,78,0.12811149217123538,2023-05-05T04:00:00Z,2023-05-05T04:00:00Z,Imported and Published,UK National Charge Point Registry
99806,Charge & Drive (Fortum - NO),Public - Membership Required,Operational,True,"Portland House, Bressenden Place",Victoria,London,England,SW1E 5RS,GB,51.497177,-0.141294,Engenie - London Office,1.0,Type 2 (Socket Only),7.0,7,Operational,Unknown,9318.948648648648,50.216666666666676,36.881025641025644,78,0.13143698763646883,2018-02-05T21:41:00Z,2018-02-05T21:41:00Z,Submission Published,Open Charge Map Contributors
253496,Shell Recharge Solutions (UK),Public - Pay At Location,nan,nan,nan,nan,London,nan,W1J 5RQ,GB,51.509231,-0.14889,Shell Recharge/Ubitricity,,Type 2 (Socket Only),5.0,5,Operational,Unknown,9318.948648648648,50.216666666666676,36.881025641025644,78,0.12942153583935764,2023-05-04T09:46:00Z,2023-05-04T09:46:00Z,Imported and Published,UK National Charge Point Registry
265104,Char.gy,Public,Operational,True,Hatfields,nan,London,nan,SE1 8DD,GB,51.5056487,-0.1066798,Hatfields,1.0,Type 2 (Socket Only),5.1,5.1,Operational,Unknown,9318.948648648648,50.216666666666676,36.881025641025644,78,0.1295223084292132,2023-05-06T05:23:00Z,2023-05-06T05:23:00Z,Submission Published,Open Charge Map Contributors
236575,Char.gy,Public,Operational,True,Hatfields,nan,London,nan,SE1 8DD,GB,51.5056487,-0.1066798,Hatfields,2.0,Type 2 (Socket Only),5.1,5.1,Operational,Unknown,9318.948648648648,50.216666666666676,36.881025641025644,78,0.13089217144291182,2023-05-04T05:44:00Z,2023-05-04T05:44:00Z,Submission Published,Open Charge Map Contributors
136202,Shell Recharge Solutions (UK),Public - Pay At Location,nan,nan,Frazier St o/s santley house,nan,London,nan,SE1 7RF,GB,51.499947,-0.110097,Frazier St o/s santley house,,Type 2 (Socket Only),3.7,3.7,Operational,Unknown,9318.948648648648,50.216666666666676,36.881025641025644,78,0.12811149217123538,2023-05-05T04:00:00Z,2023-05-05T04:00:00Z,Imported and Published,UK National Charge Point Registry
252876,Shell Recharge Solutions (UK),Public - Pay At Location,nan,nan,Opp.,nan,London,nan,SW1P 1HN,GB,51.496,-0.13885,Opp.,,Type 2 (Socket Only),5.0,5,Operational,Unknown,9318.948648648648,50.216666666666676,36.881025641025644,78,0.12942153583935764,2023-05-04T09:45:00Z,2023-05-04T09:45:00Z,Imported and Published,UK National Charge Point Registry
93741,Total Energies (UK),Public - Membership Required,Operational,True,26 Red Lion Square,nan,LONDON,nan,WC1R 4HQ,GB,51.5194932157,-0.118752916363,Red Lion Square,1.0,Type 2 (Socket Only); Type 1 (J1772),7.0,4; 7,Operational,Unknown,9318.948648648648,50.216666666666676,36.881025641025644,78,0.13143698763646883,2019-05-12T05:30:00Z,2019-05-12T05:30:00Z,Submission Published,Open Charge Map Contributors
286037,ChargePoint,Public,Unknown,nan,Sea Containers London 20 Upper Ground,nan,London,nan,SE1 9PD,GB,51.508426,-0.10639,YPML SEA CONTAINERS3,,Type 2 (Socket Only),22.0,22,Operational,Unknown,9318.948648648648,50.216666666666676,36.881025641025644,78,0.14655287611480272,2023-12-07T08:10:00Z,2023-12-07T08:10:00Z,Imported and Published,UK National Charge Point Registry
253244,Shell Recharge Solutions (UK),Public - Pay At Location,nan,nan,nan,nan,London,nan,SE1 8PZ,GB,51.50175,-0.10832,Shell Recharge/Ubitricity,,Type 2 (Socket Only),3.7,3.7,Operational,Unknown,9318.948648648648,50.216666666666676,36.881025641025644,78,0.12811149217123538,2023-05-04T09:45:00Z,2023-05-04T09:45:00Z,Imported and Published,UK National Charge Point Registry
253870,Shell Recharge Solutions (UK),Public - Pay At Location,nan,nan,47 wells street,nan,London,nan,W1T 3PN,GB,51.518485,-0.139881,47 wells street,,Type 2 (Socket Only),3.7,3.7,Operational,Unknown,9318.948648648648,50.216666666666676,36.881025641025644,78,0.12811149217123538,2023-05-05T04:00:00Z,2023-05-05T04:00:00Z,Imported and Published,UK National Charge Point Registry
252779,Shell Recharge Solutions (UK),Public - Pay At Location,nan,nan,nan,nan,London,nan,SW1P 4PQ,GB,51.494,-0.12719,Shell Recharge/Ubitricity,,Type 2 (Socket Only),5.0,5,Operational,Unknown,9318.948648648648,50.216666666666676,36.881025641025644,78,0.12942153583935764,2023-05-04T09:45:00Z,2023-05-04T09:45:00Z,Imported and Published,UK National Charge Point Registry
252825,Shell Recharge Solutions (UK),Public - Pay At Location,nan,nan,Opp. Kingsway College,nan,London,nan,SW1P 2PD,GB,51.495,-0.13602,Opp. Kingsway College,,Type 2 (Socket Only),5.0,5,Operational,Unknown,9318.948648648648,50.216666666666676,36.881025641025644,78,0.12942153583935764,2023-05-04T09:45:00Z,2023-05-04T09:45:00Z,Imported and Published,UK National Charge Point Registry
256340,Char.gy,Public,Operational,True,Paris Garden,nan,London,nan,SE1 8ND,GB,51.5068637,-0.1060779,Car Club Bays,1.0,Type 2 (Socket Only),5.1,5.1,Operational,Unknown,9318.948648648648,50.216666666666676,36.881025641025644,78,0.1295223084292132,2023-05-27T06:06:00Z,2023-05-27T06:06:00Z,Submission Published,Open Charge Map Contributors
253258,Shell Recharge Solutions (UK),Public - Pay At Location,nan,nan,opp.,nan,London,nan,SE1 8PU,GB,51.502446,-0.107545,opp.,,Type 2 (Socket Only),3.7,3.7,Operational,Unknown,9318.948648648648,50.216666666666676,36.881025641025644,78,0.12811149217123538,2023-05-04T09:45:00Z,2023-05-04T09:45:00Z,Imported and Published,UK National Charge Point Registry
236644,Char.gy,Public,Operational,True,Opposite Bastille Court,nan,Paris Garden,London,SE1 8ND,GB,51.5066487,-0.1060581,Opposite Bastille Court,1.0,Type 2 (Socket Only),5.1,5.1,Operational,Unknown,9318.948648648648,50.216666666666676,36.881025641025644,78,0.1295223084292132,2023-05-27T05:47:00Z,2023-05-27T05:47:00Z,Submission Published,Open Charge Map Contributors
253873,Shell Recharge Solutions (UK),Public - Pay At Location,nan,nan,47 Wells Street,nan,London,nan,W1T 3PW,GB,51.518602,-0.14007,47 Wells Street,,Type 2 (Socket Only),3.7,3.7,Operational,Unknown,9318.948648648648,50.216666666666676,36.881025641025644,78,0.12811149217123538,2023-05-04T09:46:00Z,2023-05-04T09:46:00Z,Imported and Published,UK National Charge Point Registry
250670,Char.gy,Public,Operational,True,Meson Don Felipe,nan,Short Street,London,SE1 8LJ,GB,51.5029337,-0.1072352,Meson Don Felipe,1.0,Type 2 (Socket Only),5.1,5.1,Operational,Unknown,9318.948648648648,50.216666666666676,36.881025641025644,78,0.1295223084292132,2023-05-27T05:43:00Z,2023-05-27T05:43:00Z,Submission Published,Open Charge Map Contributors
252769,Shell Recharge Solutions (UK),Public - Pay At Location,nan,nan,83 Page Street,nan,London,nan,SW1P 4EN,GB,51.493907,-0.130204,83 Page Street,,Type 2 (Socket Only),3.7,3.7,Operational,Unknown,9318.948648648648,50.216666666666676,36.881025641025644,78,0.12811149217123538,2023-05-04T09:45:00Z,2023-05-04T09:45:00Z,Imported and Published,UK National Charge Point Registry
253484,Shell Recharge Solutions (UK),Public - Pay At Location,nan,nan,South St 51,nan,London,nan,W1K 2XL,GB,51.508812,-0.149514,South St 51,,Type 2 (Socket Only),3.7,3.7,Operational,Unknown,9318.948648648648,50.216666666666676,36.881025641025644,78,0.12811149217123538,2023-05-05T04:00:00Z,2023-05-05T04:00:00Z,Imported and Published,UK National Charge Point Registry
173450,Shell Recharge Solutions (UK),Public,nan,nan,19-21 Ridgmount Street,nan,London,nan,WC1E 7AH,GB,51.52082,-0.13177,19-21 Ridgmount Street,,Type 2 (Socket Only),3.7,3.7,Operational,Unknown,9318.948648648648,50.216666666666676,36.881025641025644,78,0.12811149217123538,2023-05-04T09:46:00Z,2023-05-04T09:46:00Z,Imported and Published,UK National Charge Point Registry
264628,Shell Recharge Solutions (UK),Public - Pay At Location,nan,nan,nan,nan,London,nan,SW1P 1PN,GB,51.495,-0.13706,Shell Recharge/Ubitricity,,Type 2 (Socket Only),5.0,5,Operational,Unknown,9318.948648648648,50.216666666666676,36.881025641025644,78,0.12942153583935764,2023-05-04T09:45:00Z,2023-05-04T09:45:00Z,Imported and Published,UK National Charge Point Registry
252778,Shell Recharge Solutions (UK),Public - Pay At Location,nan,nan,nan,nan,London,nan,SW1P 2LT,GB,51.494,-0.13263,Shell Recharge/Ubitricity,,Type 2 (Socket Only),5.0,5,Operational,Unknown,9318.948648648648,50.216666666666676,36.881025641025644,78,0.12942153583935764,2023-05-04T09:45:00Z,2023-05-04T09:45:00Z,Imported and Published,UK National Charge Point Registry
107262,Total Energies (UK),Public - Membership Required,Operational,True,5 Cavendish Square,nan,London,nan,W1G 0PG,GB,51.5167634,-0.1439865,5 Cavendish Square,3.0,Type 2 (Socket Only); Type 1 (J1772); Type 2 (Socket Only); Type 1 (J1772); Type 2 (Socket Only); Type 1 (J1772),7.0,4; 7,Operational,Unknown,9318.948648648648,50.216666666666676,36.881025641025644,78,0.13417671366386608,2020-01-10T09:44:00Z,2020-01-10T09:44:00Z,Submission Published,Open Charge Map Contributors
252760,Shell Recharge Solutions (UK),Public - Pay At Location,nan,nan,155 Marsham Street,nan,London,nan,SW1P 4LX,GB,51.493643,-0.129072,155 Marsham Street,,Type 2 (Socket Only),3.7,3.7,Operational,Unknown,9318.948648648648,50.216666666666676,36.881025641025644,78,0.12811149217123538,2023-05-04T09:45:00Z,2023-05-04T09:45:00Z,Imported and Published,UK National Charge Point Registry
75386,Tesla (Tesla-only charging),Public - Membership Required,Operational,True,Cavendish Square,nan,London,nan,W1G 0PN,GB,51.516593,-0.144297,Q-Park Oxford Street,2.0,Tesla (Model S/X),12.0,12,Operational,Unknown,9318.948648648648,50.216666666666676,36.881025641025644,78,0.13784548014294543,2024-11-25T17:41:00Z,2024-11-25T17:41:00Z,Submission Published,Open Charge Map Contributors
236676,Char.gy,Public,Operational,True,Tennis Court 2,nan,Meymott Street,London,SE1 8DP,GB,51.505192,-0.1059383,Tennis Court 2,1.0,Type 2 (Socket Only),5.1,5.1,Operational,Unknown,9318.948648648648,50.216666666666676,36.881025641025644,78,0.1295223084292132,2023-05-27T06:10:00Z,2023-05-27T06:10:00Z,Submission Published,Open Charge Map Contributors
5507,BP Pulse (UK),Public - Membership Required,Partly Operational (Mixed),True,Cavendish Square,nan,Mayfair,London,W1G 0PN,GB,51.5166,-0.1444,Q-Park Oxford Street,2.0,BS1363 3 Pin 13 Amp; Type 2 (Socket Only); CCS (Type 2); Type 2 (Tethered Connector) ; CHAdeMO,50.0,3; 43; 50; 7,Operational; Partly Operational (Mixed),Unknown,9318.948648648648,50.216666666666676,36.881025641025644,78,0.17613906428805795,2024-11-28T11:38:00Z,2024-11-28T11:38:00Z,Submission Published,Open Charge Map Contributors
115064,BP Pulse (UK),Public - Membership Required,Partly Operational (Mixed),True,Cavendish Square,Westminster,London,nan,W1G 0PN,GB,51.516525,-0.144647,Q-Park Oxford Street Car Park,2.0,CCS (Type 2); CHAdeMO; Type 2 (Tethered Connector),50.0,43; 50,Operational; Partly Operational (Mixed),Westminster,13608.4,50.216666666666676,36.881025641025644,78,0.25612265385945154,2025-01-22T11:36:00Z,2025-01-22T11:36:00Z,Submission Published,Open Charge Map Contributors
256348,Char.gy,Public,Operational,True,St Andrews Church,nan,Short Street,London,SE1 8LJ,GB,51.5024409,-0.1068531,St Andrews Church,1.0,Type 2 (Socket Only),5.1,5.1,Operational,Unknown,9318.948648648648,50.216666666666676,36.881025641025644,78,0.1295223084292132,2023-05-27T06:13:00Z,2023-05-27T06:13:00Z,Submission Published,Open Charge Map Contributors
252774,Shell Recharge Solutions (UK),Public - Pay At Location,nan,nan,nan,nan,London,nan,SW1P 2PF,GB,51.49396,-0.134009,Shell Recharge/Ubitricity,,Type 2 (Socket Only),5.0,5,Operational,Unknown,9318.948648648648,50.216666666666676,36.881025641025644,78,0.12942153583935764,2023-05-04T09:45:00Z,2023-05-04T09:45:00Z,Imported and Published,UK National Charge Point Registry
13290,Total Energies (UK),Public - Membership Required,Operational,True,The Cut,nan,London,Southwark,SE1 8DF,GB,51.503518,-0.106169,"The Cut, Southwark",1.0,Type 2 (Socket Only); Type 1 (J1772),7.0,4; 7,Operational,Southwark,14283.6,50.216666666666676,36.881025641025644,78,0.22401074673189525,2017-04-27T13:44:00Z,2017-04-27T13:44:00Z,Imported and Published,Open Charge Map Contributors
4392,(Unknown Operator),nan,Operational,True,22 Park Lane,Westminster,London,nan,W1K 1BE,GB,51.505596,-0.150176,NCP Hilton Hotel,,nan,,nan,nan,Westminster,13608.4,50.216666666666676,36.881025641025644,78,0.20920358023104013,2011-05-17T17:23:00Z,2011-05-17T17:23:00Z,Submission Published,Open Charge Map Contributors
236623,Char.gy,Public,Operational,True,London Ambulance Services Headquarters,nan,Morley Street,London,SE1 7RU,GB,51.5000736,-0.1085487,London Ambulance Services Headquarters,1.0,Type 2 (Socket Only),5.1,5.1,Operational,Unknown,9318.948648648648,50.216666666666676,36.881025641025644,78,0.1295223084292132,2023-03-01T10:56:00Z,2023-03-01T10:56:00Z,Submission Published,Open Charge Map Contributors
252761,Shell Recharge Solutions (UK),Public - Pay At Location,nan,nan,4 Fynes Street,nan,London,nan,SW1P 4NH,GB,51.493685,-0.132669,4 Fynes Street,,Type 2 (Socket Only),3.7,3.7,Operational,Unknown,9318.948648648648,50.216666666666676,36.881025641025644,78,0.12811149217123538,2023-05-04T09:45:00Z,2023-05-04T09:45:00Z,Imported and Published,UK National Charge Point Registry
134587,Shell Recharge Solutions (UK),Public - Pay At Location,Unknown,nan,South Street,nan,London,nan,W1K 2XQ,GB,51.508647,-0.150289,Asset No. LC 6,,Type 2 (Socket Only),3.7,3.7,Operational,Unknown,9318.948648648648,50.216666666666676,36.881025641025644,78,0.12811149217123538,2019-11-18T23:30:00Z,2019-11-18T23:30:00Z,Imported and Published,Open Charge Map Contributors
236675,Char.gy,Public,Operational,True,Opposite Cooper Close,nan,Morley Street,London,SE1 7QZ,GB,51.4999483,-0.1086267,Opposite Cooper Close,1.0,Type 2 (Socket Only),5.1,5.1,Operational,Unknown,9318.948648648648,50.216666666666676,36.881025641025644,78,0.1295223084292132,2023-03-01T11:18:00Z,2023-03-01T11:18:00Z,Submission Published,Open Charge Map Contributors
236588,Char.gy,Public,Operational,True,Morley Street,nan,adjacent to Frazier Street,London,SE1 7RU,GB,51.4998062,-0.108714,Morley Street,1.0,Type 2 (Socket Only),5.1,5.1,Operational,Unknown,9318.948648648648,50.216666666666676,36.881025641025644,78,0.1295223084292132,2023-03-01T10:38:00Z,2023-03-01T10:38:00Z,Submission Published,Open Charge Map Contributors
252819,BP Pulse (UK),Public - Membership Required,nan,nan,Francis Street,nan,Westminster,nan,SW1P 1QL,GB,51.494862,-0.13817,Francis Street,,Type 2 (Socket Only),7.0,7,Operational,Westminster,13608.4,50.216666666666676,36.881025641025644,78,0.21142057720786245,2023-05-03T08:36:00Z,2023-05-03T08:36:00Z,Imported and Published,UK National Charge Point Registry
256347,Char.gy,Public,Operational,True,Opposite 29 Ufford Street,nan,London,nan,SE1 8QD,GB,51.5023477,-0.1066136,Opposite 29 Ufford Street,1.0,Type 2 (Socket Only),5.1,5.1,Operational,Unknown,9318.948648648648,50.216666666666676,36.881025641025644,78,0.1295223084292132,2023-05-27T06:12:00Z,2023-05-27T06:12:00Z,Submission Published,Open Charge Map Contributors
253376,Shell Recharge Solutions (UK),Public - Pay At Location,nan,nan,21 Curzon Street,nan,London,nan,W1J 7TE,GB,51.506313,-0.15048,21 Curzon Street,,Type 2 (Socket Only),3.7,3.7,Operational,Unknown,9318.948648648648,50.216666666666676,36.881025641025644,78,0.12811149217123538,2023-05-04T09:45:00Z,2023-05-04T09:45:00Z,Imported and Published,UK National Charge Point Registry
264657,Shell Recharge Solutions (UK),Public - Pay At Location,nan,nan,nan,nan,London,nan,W1W 6SF,GB,51.519,-0.14093,Shell Recharge/Ubitricity,,Type 2 (Socket Only),5.0,5,Operational,Unknown,9318.948648648648,50.216666666666676,36.881025641025644,78,0.12942153583935764,2023-05-04T09:46:00Z,2023-05-04T09:46:00Z,Imported and Published,UK National Charge Point Registry
256341,Char.gy,Public,Operational,True,Opposite 25 Ufford Street,nan,London,nan,SE1 8QD,GB,51.5024402,-0.106436,Opposite 25 Ufford Street,1.0,Type 2 (Socket Only),5.1,5.1,Operational,Unknown,9318.948648648648,50.216666666666676,36.881025641025644,78,0.1295223084292132,2023-05-27T06:07:00Z,2023-05-27T06:07:00Z,Submission Published,Open Charge Map Contributors
236887,Char.gy,Public,Operational,True,11 Morley Street,nan,London,nan,SE1 7QE,GB,51.4992747,-0.1090411,11 Morley Street,1.0,Type 2 (Socket Only),5.1,5.1,Operational,Unknown,9318.948648648648,50.216666666666676,36.881025641025644,78,0.1295223084292132,2023-03-14T22:16:00Z,2023-03-14T22:16:00Z,Submission Published,Open Charge Map Contributors
70186,BP Pulse (UK),Public - Membership Required,Operational,True,Foley Street,"Fitzrovia, City of Westminster",London,England,W1W 6DL,GB,51.519737,-0.139248,Foley Street,2.0,Type 2 (Socket Only); BS1363 3 Pin 13 Amp,4.0,3; 4,Operational,Westminster,13608.4,50.216666666666676,36.881025641025644,78,0.20976726252589428,2023-04-03T16:57:00Z,2023-04-03T16:57:00Z,Submission Published,Open Charge Map Contributors
264627,Shell Recharge Solutions (UK),Public - Pay At Location,nan,nan,nan,nan,London,nan,SW1P 1QN,GB,51.495,-0.13913,Shell Recharge/Ubitricity,,Type 2 (Socket Only),5.0,5,Operational,Unknown,9318.948648648648,50.216666666666676,36.881025641025644,78,0.12942153583935764,2023-05-04T09:45:00Z,2023-05-04T09:45:00Z,Imported and Published,UK National Charge Point Registry
112483,BP Pulse (UK),Public - Membership Required,Operational,True,Q-Park Oxford Street,nan,Cavendish Square,London,W1G 0PN,GB,51.516201,-0.145986,Q-Park Oxford Street,2.0,BS1363 3 Pin 13 Amp; Type 2 (Socket Only),7.0,3; 7,Operational,Unknown,9318.948648648648,50.216666666666676,36.881025641025644,78,0.13280685065016745,2023-04-03T16:59:00Z,2023-04-03T16:59:00Z,Submission Published,Open Charge Map Contributors
253912,Total Energies (UK),Public - Membership Required,nan,nan,Princeton Street,nan,Camden,nan,WC1R 4AX,GB,51.519887,-0.116387,Princeton Street,,Type 1 (J1772); Type 2 (Socket Only),7.0,3; 7,Operational,Camden,13988.4,50.216666666666676,36.881025641025644,78,0.2185062768807482,2023-03-08T04:21:00Z,2023-03-08T04:21:00Z,Imported and Published,UK National Charge Point Registry
99630,Tesla (Tesla-only charging),Public - Membership Required,Operational,True,1 Hamilton Place,nan,London,nan,W1J 7QY,GB,51.503851,-0.150187,Intercontinental London Park Lane,2.0,Tesla (Model S/X),13.0,13,Operational,Unknown,9318.948648648648,50.216666666666676,36.881025641025644,78,0.138853206041501,2018-10-03T19:33:00Z,2018-10-03T19:33:00Z,Submission Published,Open Charge Map Contributors
253906,Shell Recharge Solutions (UK),Public - Pay At Location,nan,nan,nan,nan,London,nan,W1W 6TU,GB,51.519579,-0.140208,Shell Recharge/Ubitricity,,Type 2 (Socket Only),5.0,5,Operational,Unknown,9318.948648648648,50.216666666666676,36.881025641025644,78,0.12942153583935764,2023-05-04T09:46:00Z,2023-05-04T09:46:00Z,Imported and Published,UK National Charge Point Registry
252880,Shell Recharge Solutions (UK),Public - Pay At Location,nan,nan,nan,nan,London,nan,SE1 7DF,GB,51.496061,-0.113474,Shell Recharge/Ubitricity,,Type 2 (Socket Only),5.0,5,Operational,Unknown,9318.948648648648,50.216666666666676,36.881025641025644,78,0.12942153583935764,2023-05-04T09:45:00Z,2023-05-04T09:45:00Z,Imported and Published,UK National Charge Point Registry
252777,Shell Recharge Solutions (UK),Public - Pay At Location,nan,nan,Opp.,nan,London,nan,SW1P 2NU,GB,51.494,-0.13649,Opp.,,Type 2 (Socket Only),5.0,5,Operational,Unknown,9318.948648648648,50.216666666666676,36.881025641025644,78,0.12942153583935764,2023-05-04T09:45:00Z,2023-05-04T09:45:00Z,Imported and Published,UK National Charge Point Registry
173448,Shell Recharge Solutions (UK),Public,nan,nan,Huntley Street,nan,London,nan,W1T 7LQ,GB,51.521479,-0.133093,Huntley Street,,Type 2 (Socket Only),3.7,3.7,Operational,Unknown,9318.948648648648,50.216666666666676,36.881025641025644,78,0.12811149217123538,2023-05-04T09:46:00Z,2023-05-04T09:46:00Z,Imported and Published,UK National Charge Point Registry
236562,Char.gy,Public,Operational,True,Opposite 9 Valentine Place,nan,London,nan,SE1 8QH,GB,51.5014286,-0.1064933,Opposite 9 Valentine Place,1.0,Type 2 (Socket Only),4.6,4.6,Operational,Unknown,9318.948648648648,50.216666666666676,36.881025641025644,78,0.1290184454799354,2023-02-27T15:46:00Z,2023-02-27T15:46:00Z,Submission Published,Open Charge Map Contributors
237922,Char.gy,Public,Operational,True,Guthrie Court,nan,Gerridge Street,London,SE1 7QH,GB,51.4991405,-0.1084378,Guthrie Court,1.0,Type 2 (Socket Only),5.1,5.1,Operational,Unknown,9318.948648648648,50.216666666666676,36.881025641025644,78,0.1295223084292132,2023-03-02T17:03:00Z,2023-03-02T17:03:00Z,Submission Published,Open Charge Map Contributors
253982,ESB Energy (UK),Public - Pay At Location,nan,nan,"Russell Square (North West side), Bloomsbury",nan,London,nan,WC1B 5EA,GB,51.52203546304605,-0.1274924311288714,(Taxis Only) Russell Square (North West side),,CHAdeMO; Type 2 (Tethered Connector),50.0,50,Operational,Unknown,9318.948648648648,50.216666666666676,36.881025641025644,78,0.17476920127435933,2024-08-06T00:33:00Z,2024-08-06T00:33:00Z,Imported and Published,Open Charge Map Contributors
264635,Shell Recharge Solutions (UK),Public - Pay At Location,nan,nan,nan,nan,London,nan,W1K 4AF,GB,51.512003,-0.15015,Shell Recharge/Ubitricity,,Type 2 (Socket Only),5.0,5,Operational,Unknown,9318.948648648648,50.216666666666676,36.881025641025644,78,0.12942153583935764,2023-05-04T09:46:00Z,2023-05-04T09:46:00Z,Imported and Published,UK National Charge Point Registry
214177,Shell Recharge Solutions (UK),Public - Pay At Location,nan,nan,opp.,nan,London,nan,SW1P 4JU,GB,51.492726,-0.127804,opp.,,Type 2 (Socket Only),5.0,5,Operational,Unknown,9318.948648648648,50.216666666666676,36.881025641025644,78,0.12942153583935764,2023-05-04T09:45:00Z,2023-05-04T09:45:00Z,Imported and Published,UK National Charge Point Registry
311505,Shell Recharge Solutions (UK),Public,Operational,True,5 Ogle Street,nan,nan,nan,W1W 6AG,GB,51.52005014610637,-0.1398122201227352,5 Ogle Street,1.0,Type 2 (Socket Only),5.0,5,Operational,Unknown,9318.948648648648,50.216666666666676,36.881025641025644,78,0.12942153583935764,2025-04-03T00:43:00Z,2025-04-03T00:43:00Z,Submission Published,Open Charge Map Contributors
187699,Shell Recharge Solutions (UK),Public - Pay At Location,nan,nan,opposite Vincent street,nan,London,nan,SW1P 2LA,GB,51.49312,-0.133628,opposite Vincent street,,Type 2 (Socket Only),3.7,3.7,Operational,Unknown,9318.948648648648,50.216666666666676,36.881025641025644,78,0.12811149217123538,2023-05-04T09:45:00Z,2023-05-04T09:45:00Z,Imported and Published,UK National Charge Point Registry
74354,Tesla (Tesla-only charging),Public - Membership Required,Operational,True,Achilles Way,nan,London,nan,W1K 1AB,GB,51.50497,-0.151181,The Mayfair Car Park,1.0,Tesla (Model S/X),22.0,22,Operational,Unknown,9318.948648648648,50.216666666666676,36.881025641025644,78,0.14655287611480272,2018-10-03T15:43:00Z,2018-10-03T15:43:00Z,Submission Published,Open Charge Map Contributors
264626,Shell Recharge Solutions (UK),Public - Pay At Location,nan,nan,nan,nan,London,nan,SW1P 1HX,GB,51.495,-0.1407,Shell Recharge/Ubitricity,,Type 2 (Socket Only),4.8,4.8,Operational,Unknown,9318.948648648648,50.216666666666676,36.881025641025644,78,0.1292199906596465,2023-05-04T09:45:00Z,2023-05-04T09:45:00Z,Imported and Published,UK National Charge Point Registry
257001,Char.gy,Public,Unknown,nan,49 - 56 Dobson Street,nan,London,nan,SE1 7QJ,GB,51.4995898,-0.1076207,49-56 Dobson Street,1.0,Type 2 (Socket Only),5.1,5.1,Unknown,Unknown,9318.948648648648,50.216666666666676,36.881025641025644,78,0.1295223084292132,2023-05-26T09:53:00Z,2023-05-26T09:53:00Z,Submission Published,Open Charge Map Contributors
256999,Char.gy,Public,Operational,True,62 Webber Row,nan,London,nan,SE1 8QP,GB,51.5004734,-0.1067867,62 Webber Row,1.0,Type 2 (Socket Only),5.1,5.1,Operational,Unknown,9318.948648648648,50.216666666666676,36.881025641025644,78,0.1295223084292132,2023-05-27T05:45:00Z,2023-05-27T05:45:00Z,Submission Published,Open Charge Map Contributors
237920,Char.gy,Public,Operational,True,Opposite Jurston Court,nan,Gerridge Street,London,SE1 7QH,GB,51.4989476,-0.1082259,Opposite Jurston Court,1.0,Type 2 (Socket Only),5.1,5.1,Operational,Unknown,9318.948648648648,50.216666666666676,36.881025641025644,78,0.1295223084292132,2023-03-01T11:44:00Z,2023-03-01T11:44:00Z,Submission Published,Open Charge Map Contributors
256998,Char.gy,Public,Operational,True,Dauncy House,nan,Webber Row,London,SE1 8QS,GB,51.5004529,-0.1066891,Dauncy House,1.0,Type 2 (Socket Only),5.1,5.1,Operational,Unknown,9318.948648648648,50.216666666666676,36.881025641025644,78,0.1295223084292132,2023-05-27T05:39:00Z,2023-05-27T05:39:00Z,Submission Published,Open Charge Map Contributors
133957,Total Energies (UK),Public - Membership Required,Operational,True,56 Webber Row,nan,London,nan,SE1 8QP,GB,51.500557,-0.10658,Webber Row,3.0,Type 2 (Socket Only); Type 1 (J1772),7.0,4; 7,Operational,Unknown,9318.948648648648,50.216666666666676,36.881025641025644,78,0.13417671366386608,2019-11-01T06:36:00Z,2019-11-01T06:36:00Z,Submission Published,Open Charge Map Contributors
236653,Char.gy,Public,Operational,True,Delarch House,nan,Webber Row,London,SE1 8QU,GB,51.5005969,-0.1064741,Delarch House,1.0,Type 2 (Socket Only),5.1,5.1,Operational,Unknown,9318.948648648648,50.216666666666676,36.881025641025644,78,0.1295223084292132,2023-03-01T11:06:00Z,2023-03-01T11:06:00Z,Submission Published,Open Charge Map Contributors
214185,Shell Recharge Solutions (UK),Public - Pay At Location,nan,nan,junc. Willow Place,nan,London,nan,SW1P 1DU,GB,51.494,-0.13833,junc. Willow Place,,Type 2 (Socket Only),5.0,5,Operational,Unknown,9318.948648648648,50.216666666666676,36.881025641025644,78,0.12942153583935764,2023-05-04T09:45:00Z,2023-05-04T09:45:00Z,Imported and Published,UK National Charge Point Registry
237918,Char.gy,Public,Operational,True,Jurston Court,nan,Gerridge Street,London,SE1 7QH,GB,51.4988558,-0.1078889,Jurston Court,1.0,Type 2 (Socket Only),5.1,5.1,Operational,Unknown,9318.948648648648,50.216666666666676,36.881025641025644,78,0.1295223084292132,2023-03-01T11:44:00Z,2023-03-01T11:44:00Z,Submission Published,Open Charge Map Contributors
253915,Shell Recharge Solutions (UK),Public - Pay At Location,nan,nan,nan,nan,London,nan,W1W 6RR,GB,51.519929,-0.141256,Shell Recharge/Ubitricity,,Type 2 (Socket Only),5.0,5,Operational,Unknown,9318.948648648648,50.216666666666676,36.881025641025644,78,0.12942153583935764,2023-05-04T09:46:00Z,2023-05-04T09:46:00Z,Imported and Published,UK National Charge Point Registry
126179,POD Point (UK),Public - Membership Required,Operational,True,56-60 Guilford Street,nan,London,nan,WC1N 1DB,GB,51.522299,-0.123915,Imperial Hotels - The President,4.0,Type 2 (Socket Only); Type 2 (Socket Only); Type 2 (Socket Only); Type 2 (Socket Only),22.0,22,Operational,Unknown,9318.948648648648,50.216666666666676,36.881025641025644,78,0.15066246515589862,2023-06-27T00:57:00Z,2023-06-27T00:57:00Z,Submission Published,Open Charge Map Contributors
92003,Total Energies (UK),Public - Membership Required,Operational,True,38 Grosvenor Square,nan,LONDON,nan,W1K 2HP,GB,51.510791,-0.151436,Grosvenor Square,3.0,Type 2 (Socket Only); Type 1 (J1772); Type 2 (Socket Only); Type 1 (J1772),7.0,4; 7,Operational,Unknown,9318.948648648648,50.216666666666676,36.881025641025644,78,0.13417671366386608,2019-10-27T06:35:00Z,2019-10-27T06:35:00Z,Submission Published,Open Charge Map Contributors
252712,Shell Recharge Solutions (UK),Public - Pay At Location,nan,nan,Herrick Street,nan,London,nan,SW1P 4HW,GB,51.492299,-0.128835,Herrick Street,,Type 2 (Socket Only),3.7,3.7,Operational,Unknown,9318.948648648648,50.216666666666676,36.881025641025644,78,0.12811149217123538,2023-05-04T09:45:00Z,2023-05-04T09:45:00Z,Imported and Published,UK National Charge Point Registry
253968,Shell Recharge Solutions (UK),Public,nan,nan,14 Orde Hall Street,nan,London,nan,WC1N 3JW,GB,51.521527,-0.119138,14 Orde Hall Street,,Type 2 (Socket Only),3.7,3.7,Operational,Unknown,9318.948648648648,50.216666666666676,36.881025641025644,78,0.12811149217123538,2023-05-04T09:46:00Z,2023-05-04T09:46:00Z,Imported and Published,UK National Charge Point Registry
311506,Shell Recharge Solutions (UK),Public,Operational,True,Ogle Street,nan,nan,nan,W1W 6YH,GB,51.52049031472211,-0.1399885502412416,Ogle Street,1.0,Type 2 (Socket Only),5.0,5,Operational,Unknown,9318.948648648648,50.216666666666676,36.881025641025644,78,0.12942153583935764,2025-04-03T00:47:00Z,2025-04-03T00:47:00Z,Submission Published,Open Charge Map Contributors
136236,Shell Recharge Solutions (UK),Public - Pay At Location,nan,nan,Nicholson St,nan,London,nan,SE1 8NL,GB,51.50519,-0.103733,Nicholson St,,Type 2 (Socket Only),3.7,3.7,Operational,Unknown,9318.948648648648,50.216666666666676,36.881025641025644,78,0.12811149217123538,2023-05-05T04:00:00Z,2023-05-05T04:00:00Z,Imported and Published,UK National Charge Point Registry
311507,Shell Recharge Solutions (UK),Public,Operational,True,148 New Cavendish Street,nan,London,England,nan,GB,51.520577619587215,-0.1398402937229548,148 New Cavendish Street,1.0,Type 2 (Socket Only),5.0,5,Operational,Unknown,9318.948648648648,50.216666666666676,36.881025641025644,78,0.12942153583935764,2025-04-03T00:49:00Z,2025-04-03T00:49:00Z,Submission Published,Open Charge Map Contributors
187697,Shell Recharge Solutions (UK),Public - Pay At Location,nan,nan,opposite Hide Tower,nan,London,nan,SW1P 4AE,GB,51.492506,-0.132449,opposite Hide Tower,,Type 2 (Socket Only),3.7,3.7,Operational,Unknown,9318.948648648648,50.216666666666676,36.881025641025644,78,0.12811149217123538,2023-05-04T09:45:00Z,2023-05-04T09:45:00Z,Imported and Published,UK National Charge Point Registry
237011,Char.gy,Public,Operational,True,15 Scoresby Street,nan,London,nan,SE1 0XN,GB,51.5043992,-0.1038835,15 Scoresby Street,1.0,Type 2 (Socket Only),5.1,5.1,Operational,Unknown,9318.948648648648,50.216666666666676,36.881025641025644,78,0.1295223084292132,2023-03-01T11:12:00Z,2023-03-01T11:12:00Z,Submission Published,Open Charge Map Contributors
264656,Shell Recharge Solutions (UK),Public - Pay At Location,nan,nan,nan,nan,London,nan,W1B 1LU,GB,51.519,-0.14362,Shell Recharge/Ubitricity,,Type 2 (Socket Only),5.0,5,Operational,Unknown,9318.948648648648,50.216666666666676,36.881025641025644,78,0.12942153583935764,2023-05-04T09:46:00Z,2023-05-04T09:46:00Z,Imported and Published,UK National Charge Point Registry
75294,Tesla (Tesla-only charging),Public - Membership Required,Operational,True,Queen Anne Mews,nan,London,nan,W1G 9HF,GB,51.517933,-0.145537,Q-Park Harley Street,2.0,Tesla (Model S/X),22.0,22,Operational,Unknown,9318.948648648648,50.216666666666676,36.881025641025644,78,0.14792273912850135,2018-10-03T14:57:00Z,2018-10-03T14:57:00Z,Submission Published,Open Charge Map Contributors
253907,Shell Recharge Solutions (UK),Public - Pay At Location,nan,nan,107 Great Portland Street,nan,London,nan,W1W 6QG,GB,51.519591,-0.14255,107 Great Portland Street,,Type 2 (Socket Only),3.7,3.7,Operational,Unknown,9318.948648648648,50.216666666666676,36.881025641025644,78,0.12811149217123538,2023-05-04T09:46:00Z,2023-05-04T09:46:00Z,Imported and Published,UK National Charge Point Registry
85852,Total Energies (UK),Public - Membership Required,Operational,True,38 Grosvenor Square,nan,LONDON,nan,W1K 2QB,GB,51.5106839403,-0.151771698031,Grosvenor Square,3.0,Type 2 (Socket Only); Type 1 (J1772),7.0,4; 7,Operational,Unknown,9318.948648648648,50.216666666666676,36.881025641025644,78,0.13417671366386608,2017-06-10T05:24:00Z,2017-06-10T05:24:00Z,Submission Published,Open Charge Map Contributors
214180,Shell Recharge Solutions (UK),Public - Pay At Location,nan,nan,nan,nan,London,nan,SW1P 1JJ,GB,51.493607,-0.138444,Shell Recharge/Ubitricity,,Type 2 (Socket Only),5.0,5,Operational,Unknown,9318.948648648648,50.216666666666676,36.881025641025644,78,0.12942153583935764,2023-05-04T09:45:00Z,2023-05-04T09:45:00Z,Imported and Published,UK National Charge Point Registry
91671,BP Pulse (UK),Public - Membership Required,Operational,True,Q-Park Harley Street,nan,Queen Anne Mews,London,W1G 9HF,GB,51.517899,-0.145713,Q-Park Harley Street,20.0,BS1363 3 Pin 13 Amp; Type 2 (Socket Only),7.0,3; 7,Operational,Unknown,9318.948648648648,50.216666666666676,36.881025641025644,78,0.1574643848967428,2023-04-03T16:57:00Z,2023-04-03T16:57:00Z,Submission Published,Open Charge Map Contributors
236693,Char.gy,Public,Operational,True,Opposite 18 Nicholson Street,nan,London,nan,SW1 0XP,GB,51.5051932,-0.1034235,Opposite 18 Nicholson Street,1.0,Type 2 (Socket Only),5.1,5.1,Operational,Unknown,9318.948648648648,50.216666666666676,36.881025641025644,78,0.1295223084292132,2023-03-04T06:27:00Z,2023-03-04T06:27:00Z,Submission Published,Open Charge Map Contributors
253940,Shell Recharge Solutions (UK),Public - Pay At Location,nan,nan,New Cavendish St 115,nan,London,nan,W1W 6UW,GB,51.520653,-0.140274,New Cavendish St 115,,Type 2 (Socket Only),3.7,3.7,Operational,Unknown,9318.948648648648,50.216666666666676,36.881025641025644,78,0.12811149217123538,2023-05-05T04:00:00Z,2023-05-05T04:00:00Z,Imported and Published,UK National Charge Point Registry
173458,Shell Recharge Solutions (UK),Public,nan,nan,38 Bedford Way,nan,London,nan,WC1H 0DG,GB,51.522762,-0.127384,38 Bedford Way,,Type 2 (Socket Only),3.7,3.7,Operational,Unknown,9318.948648648648,50.216666666666676,36.881025641025644,78,0.12811149217123538,2023-05-04T09:47:00Z,2023-05-04T09:47:00Z,Imported and Published,UK National Charge Point Registry
126964,Incharge (SE),Public - Membership Required,Operational,True,181 Queen Victoria Street,Temple,London,City of London,EC4V 4EG,GB,51.511371,-0.103942,181 Queen Victoria Street,4.0,Type 2 (Socket Only),22.0,22,Operational,City of London,3651.6,50.216666666666676,36.881025641025644,78,0.04498580603521653,2019-05-24T09:59:00Z,2019-05-24T09:59:00Z,Imported and Published,Open Charge Map Contributors
107273,Total Energies (UK),Public - Membership Required,Operational,True,6 Malet Street,nan,London,nan,WC1E 7HY,GB,51.5225936698,-0.131569826997,Malet Street,1.0,Type 2 (Socket Only),22.0,22,Operational,Unknown,9318.948648648648,50.216666666666676,36.881025641025644,78,0.14655287611480272,2019-05-12T05:29:00Z,2019-05-12T05:29:00Z,Submission Published,Open Charge Map Contributors
236630,Char.gy,Public,Operational,True,Trident House,nan,Webber Street,London,SE1 8QW,GB,51.5009793,-0.1053359,Trident House,1.0,Type 2 (Socket Only),5.1,5.1,Operational,Unknown,9318.948648648648,50.216666666666676,36.881025641025644,78,0.1295223084292132,2023-03-01T10:57:00Z,2023-03-01T10:57:00Z,Submission Published,Open Charge Map Contributors
236666,Char.gy,Public,Operational,True,Opposite 86 Scoresby Street,nan,London,nan,SE1 0XN,GB,51.5043941,-0.10355,Opposite 86 Scoresby Street,1.0,Type 2 (Socket Only),5.1,5.1,Operational,Unknown,9318.948648648648,50.216666666666676,36.881025641025644,78,0.1295223084292132,2023-03-01T11:11:00Z,2023-03-01T11:11:00Z,Submission Published,Open Charge Map Contributors
52889,BP Pulse (UK),Public - Membership Required,Not Operational,False,33 Wilton Street,Belgravia,London,nan,SW1X 7AX,GB,51.498959,-0.148498,Wilton Street,4.0,Type 2 (Socket Only); Type 2 (Socket Only),7.0,7,Not Operational,Unknown,9318.948648648648,50.216666666666676,36.881025641025644,78,0.13554657667756473,2023-04-03T17:21:00Z,2023-04-03T17:21:00Z,Submission Published,Open Charge Map Contributors
200445,Shell Recharge Solutions (UK),Public - Pay At Location,nan,nan,opp.,nan,London,nan,SE11 6AG,GB,51.492856,-0.119639,opp.,,Type 2 (Socket Only),3.7,3.7,Operational,Unknown,9318.948648648648,50.216666666666676,36.881025641025644,78,0.12811149217123538,2023-05-04T09:45:00Z,2023-05-04T09:45:00Z,Imported and Published,UK National Charge Point Registry
252696,Shell Recharge Solutions (UK),Public - Pay At Location,nan,nan,Opp. Millbank Gardens,nan,London,nan,SW1P 4HX,GB,51.492,-0.12917,Opp. Millbank Gardens,,Type 2 (Socket Only),5.0,5,Operational,Unknown,9318.948648648648,50.216666666666676,36.881025641025644,78,0.12942153583935764,2023-05-04T09:45:00Z,2023-05-04T09:45:00Z,Imported and Published,UK National Charge Point Registry
252719,Shell Recharge Solutions (UK),Public - Pay At Location,nan,nan,o/s Tothill House,nan,London,nan,SW1P 2NB,GB,51.492443,-0.134113,o/s Tothill House,,Type 2 (Socket Only),5.0,5,Operational,Unknown,9318.948648648648,50.216666666666676,36.881025641025644,78,0.12942153583935764,2023-05-04T09:45:00Z,2023-05-04T09:45:00Z,Imported and Published,UK National Charge Point Registry
235730,Char.gy,Public,Operational,True,Lambeth Road,nan,adjacent to 200 Barkham Terrace,London,SE1 1YF,GB,51.4970863,-0.1092154,Lambeth Road,1.0,Type 2 (Socket Only),5.1,5.1,Operational,Lambeth,14883.6,50.216666666666676,36.881025641025644,78,0.23328401437656449,2023-03-01T10:33:00Z,2023-03-01T10:33:00Z,Submission Published,Open Charge Map Contributors
286060,Shell Recharge Solutions (UK),Public - Pay At Location,Unknown,nan,15 Grosvenor Square,nan,London,nan,W1K 6LD,GB,51.512186,-0.151515,15 Grosvenor Square,,Type 2 (Socket Only),5.0,5,Operational,Unknown,9318.948648648648,50.216666666666676,36.881025641025644,78,0.12942153583935764,2023-12-07T08:10:00Z,2023-12-07T08:10:00Z,Imported and Published,UK National Charge Point Registry
253490,Shell Recharge Solutions (UK),Public - Pay At Location,nan,nan,nan,nan,London,nan,W1K 2SB,GB,51.509,-0.1526,Shell Recharge/Ubitricity,,Type 2 (Socket Only),5.0,5,Operational,Unknown,9318.948648648648,50.216666666666676,36.881025641025644,78,0.12942153583935764,2023-05-04T09:46:00Z,2023-05-04T09:46:00Z,Imported and Published,UK National Charge Point Registry
250681,Char.gy,Public,Operational,True,Treveris Street,nan,corner of Chancel Street,London,SE1 0FW,GB,51.5055511,-0.1029543,Treveris Street,1.0,Type 2 (Socket Only),5.1,5.1,Operational,Unknown,9318.948648648648,50.216666666666676,36.881025641025644,78,0.1295223084292132,2023-05-27T06:08:00Z,2023-05-27T06:08:00Z,Submission Published,Open Charge Map Contributors
253752,Shell Recharge Solutions (UK),Public - Pay At Location,nan,nan,nan,nan,London,nan,W1G 0AT,GB,51.516004,-0.148667,Shell Recharge/Ubitricity,,Type 2 (Socket Only),5.0,5,Operational,Unknown,9318.948648648648,50.216666666666676,36.881025641025644,78,0.12942153583935764,2023-05-04T09:46:00Z,2023-05-04T09:46:00Z,Imported and Published,UK National Charge Point Registry
253865,Shell Recharge Solutions (UK),Public - Pay At Location,nan,nan,nan,nan,London,nan,W1G 9LD,GB,51.518409,-0.14572,Shell Recharge/Ubitricity,,Type 2 (Socket Only),5.0,5,Operational,Unknown,9318.948648648648,50.216666666666676,36.881025641025644,78,0.12942153583935764,2023-05-04T09:46:00Z,2023-05-04T09:46:00Z,Imported and Published,UK National Charge Point Registry
173462,Shell Recharge Solutions (UK),Public,nan,nan,23 Great Ormond Street,nan,London,nan,WC1N 3JB,GB,51.522196,-0.119192,23 Great Ormond Street,,Type 2 (Socket Only),3.7,3.7,Operational,Unknown,9318.948648648648,50.216666666666676,36.881025641025644,78,0.12811149217123538,2023-05-04T09:46:00Z,2023-05-04T09:46:00Z,Imported and Published,UK National Charge Point Registry
253849,Shell Recharge Solutions (UK),Public - Pay At Location,nan,nan,22 Harley Street,nan,London,nan,W1G 9PL,GB,51.518042,-0.146497,22 Harley Street,,Type 2 (Socket Only),3.7,3.7,Operational,Unknown,9318.948648648648,50.216666666666676,36.881025641025644,78,0.12811149217123538,2023-05-04T09:46:00Z,2023-05-04T09:46:00Z,Imported and Published,UK National Charge Point Registry
252715,Shell Recharge Solutions (UK),Public - Pay At Location,nan,nan,Opp.,nan,London,nan,SW1P 2NP,GB,51.492341,-0.13542,Opp.,,Type 2 (Socket Only),5.0,5,Operational,Unknown,9318.948648648648,50.216666666666676,36.881025641025644,78,0.12942153583935764,2023-05-04T09:45:00Z,2023-05-04T09:45:00Z,Imported and Published,UK National Charge Point Registry
252695,Shell Recharge Solutions (UK),Public - Pay At Location,nan,nan,junc. Hide Place,nan,London,nan,SW1P 4HD,GB,51.492,-0.1334,junc. Hide Place,,Type 2 (Socket Only),5.0,5,Operational,Unknown,9318.948648648648,50.216666666666676,36.881025641025644,78,0.12942153583935764,2023-05-04T09:45:00Z,2023-05-04T09:45:00Z,Imported and Published,UK National Charge Point Registry
236904,Char.gy,Public,Operational,True,Friars Close,nan,Bear Lane,London,SE1 0UJ,GB,51.5060198,-0.1024637,Friars Close,1.0,Type 2 (Socket Only),5.1,5.1,Operational,Unknown,9318.948648648648,50.216666666666676,36.881025641025644,78,0.1295223084292132,2023-03-31T05:28:00Z,2023-03-31T05:28:00Z,Submission Published,Open Charge Map Contributors
268064,Total Energies (UK),Public,nan,nan,12 Fitzroy Street,nan,Camden Town,nan,W1T 4BL,GB,51.521873,-0.138201,Fitzroy Street Site 2,,Type 2 (Socket Only),22.0,22,Operational,Camden,13988.4,50.216666666666676,36.881025641025644,78,0.2336221653590821,2023-12-07T08:10:00Z,2023-12-07T08:10:00Z,Imported and Published,UK National Charge Point Registry
236674,Char.gy,Public,Operational,True,Bankside Lofts,nan,Hopton Street,London,SE1 9JL,GB,51.5073407,-0.1023252,Bankside Lofts,1.0,Type 2 (Socket Only),5.1,5.1,Operational,Unknown,9318.948648648648,50.216666666666676,36.881025641025644,78,0.1295223084292132,2023-04-15T05:21:00Z,2023-04-15T05:21:00Z,Submission Published,Open Charge Map Contributors
237067,Char.gy,Public,Operational,True,Hopton Gardens,nan,Hopton Street,London,SE1 9JJ,GB,51.5068159,-0.1023129,Hopton Gardens,1.0,Type 2 (Socket Only),5.1,5.1,Operational,Unknown,9318.948648648648,50.216666666666676,36.881025641025644,78,0.1295223084292132,2023-05-27T06:10:00Z,2023-05-27T06:10:00Z,Submission Published,Open Charge Map Contributors
127643,Total Energies (UK),Public - Membership Required,Operational,True,9 Herbrand Street,nan,London,nan,WC1N 1LB,GB,51.523192,-0.125116,Herbrand Street,1.0,Type 1 (J1772); Type 2 (Socket Only),7.0,4; 7,Operational,Unknown,9318.948648648648,50.216666666666676,36.881025641025644,78,0.13143698763646883,2025-08-17T22:57:00Z,2025-08-17T22:57:00Z,Submission Published,Open Charge Map Contributors
252704,Shell Recharge Solutions (UK),Public - Pay At Location,nan,nan,opp.,nan,London,nan,SW1P 2NW,GB,51.492138,-0.13502,opp.,,Type 2 (Socket Only),5.0,5,Operational,Unknown,9318.948648648648,50.216666666666676,36.881025641025644,78,0.12942153583935764,2023-05-04T09:45:00Z,2023-05-04T09:45:00Z,Imported and Published,UK National Charge Point Registry
253953,Shell Recharge Solutions (UK),Public - Pay At Location,nan,nan,junc.  Hanson Street,nan,London,nan,W1W 5DH,GB,51.521,-0.14107,junc.  Hanson Street,,Type 2 (Socket Only),5.0,5,Operational,Unknown,9318.948648648648,50.216666666666676,36.881025641025644,78,0.12942153583935764,2023-05-04T09:46:00Z,2023-05-04T09:46:00Z,Imported and Published,UK National Charge Point Registry
236556,Char.gy,Public,Operational,True,Rowland Hill House,nan,Nelson Square,London,SE1 0QA,GB,51.5032571,-0.1031196,Rowland Hill House,1.0,Type 2 (Socket Only),5.1,5.1,Operational,Unknown,9318.948648648648,50.216666666666676,36.881025641025644,78,0.1295223084292132,2023-03-01T10:08:00Z,2023-03-01T10:08:00Z,Submission Published,Open Charge Map Contributors
252694,Shell Recharge Solutions (UK),Public - Pay At Location,nan,nan,nan,nan,London,nan,SW1P 2NA,GB,51.492,-0.13428,Shell Recharge/Ubitricity,,Type 2 (Socket Only),5.0,5,Operational,Unknown,9318.948648648648,50.216666666666676,36.881025641025644,78,0.12942153583935764,2023-05-04T09:45:00Z,2023-05-04T09:45:00Z,Imported and Published,UK National Charge Point Registry
252700,Shell Recharge Solutions (UK),Public - Pay At Location,nan,nan,30 Vincent Square,nan,London,nan,SW1P 2NW,GB,51.492067,-0.134849,30 Vincent Square,,Type 2 (Socket Only),3.7,3.7,Operational,Unknown,9318.948648648648,50.216666666666676,36.881025641025644,78,0.12811149217123538,2023-05-04T09:45:00Z,2023-05-04T09:45:00Z,Imported and Published,UK National Charge Point Registry
253937,Shell Recharge Solutions (UK),Public - Pay At Location,nan,nan,nan,nan,London,nan,W1W 5NU,GB,51.520629,-0.142295,Shell Recharge/Ubitricity,,Type 2 (Socket Only),5.0,5,Operational,Unknown,9318.948648648648,50.216666666666676,36.881025641025644,78,0.12942153583935764,2023-05-04T09:46:00Z,2023-05-04T09:46:00Z,Imported and Published,UK National Charge Point Registry
250673,Char.gy,Public,Operational,True,23 Surrey Row,nan,London,nan,SE1 0BH,GB,51.50231,-0.1033688,23 Surrey Row,1.0,Type 2 (Socket Only),5.1,5.1,Operational,Unknown,9318.948648648648,50.216666666666676,36.881025641025644,78,0.1295223084292132,2023-05-27T05:52:00Z,2023-05-27T05:52:00Z,Submission Published,Open Charge Map Contributors
268066,Total Energies (UK),Public,nan,nan,80 Whitfield Street,nan,Camden Town,nan,W1T 4EZ,GB,51.52236,-0.137215,Whitfield Street,,Type 2 (Socket Only),22.0,22,Operational,Camden,13988.4,50.216666666666676,36.881025641025644,78,0.2336221653590821,2025-04-03T00:58:00Z,2025-04-03T00:58:00Z,Imported and Published,UK National Charge Point Registry
236581,Char.gy,Public,Operational,True,Manna Ash House,nan,Pocock Street,London,SE1 0BW,GB,51.5019583,-0.103507,Manna Ash House,1.0,Type 2 (Socket Only),5.1,5.1,Operational,Unknown,9318.948648648648,50.216666666666676,36.881025641025644,78,0.1295223084292132,2023-03-01T10:35:00Z,2023-03-01T10:35:00Z,Submission Published,Open Charge Map Contributors
47905,Total Energies (UK),Public,Operational,True,1 John Street,Camden,London,nan,WC1X 8PF,GB,51.521318,-0.114743,John Street,2.0,Type 2 (Socket Only); Type 1 (J1772),7.0,4; 7,Operational,Camden,13988.4,50.216666666666676,36.881025641025644,78,0.21987613989444682,2025-08-07T19:10:00Z,2025-08-07T19:10:00Z,Submission Published,Open Charge Map Contributors
253957,Shell Recharge Solutions (UK),Public - Pay At Location,nan,nan,Opp.,nan,London,nan,W1W 5DH,GB,51.52111,-0.141474,Opp.,,Type 2 (Socket Only),5.0,5,Operational,Unknown,9318.948648648648,50.216666666666676,36.881025641025644,78,0.12942153583935764,2023-05-04T09:46:00Z,2023-05-04T09:46:00Z,Imported and Published,UK National Charge Point Registry
252892,Shell Recharge Solutions (UK),Public - Pay At Location,nan,nan,21 Ebury Street,nan,London,nan,SW1W 0LD,GB,51.49638,-0.146972,21 Ebury Street,,Type 2 (Socket Only),3.7,3.7,Operational,Unknown,9318.948648648648,50.216666666666676,36.881025641025644,78,0.12811149217123538,2023-05-04T09:45:00Z,2023-05-04T09:45:00Z,Imported and Published,UK National Charge Point Registry
279040,POD Point (UK),Public - Membership Required,Operational,True,38-51 Bedford Way,nan,Bloomsbury,London,WC1H 0DG,GB,51.523654,-0.127568,Imperial Hotels-Royal National Hotel,3.0,Type 2 (Socket Only); Type 2 (Socket Only); Type 2 (Socket Only); Type 2 (Socket Only),22.0,22,Operational,Unknown,9318.948648648648,50.216666666666676,36.881025641025644,78,0.14929260214219997,2023-10-10T05:29:00Z,2023-10-10T05:29:00Z,Submission Published,Open Charge Map Contributors
51617,Total Energies (UK),Public - Membership Required,Operational,True,21 Bernard Street,Camden,London,nan,WC1N 1LN,GB,51.523416,-0.12332,Bernard Street,1.0,Type 2 (Socket Only); Type 1 (J1772),7.0,4; 7,Operational,Camden,13988.4,50.216666666666676,36.881025641025644,78,0.2185062768807482,2023-02-23T14:33:00Z,2023-02-23T14:33:00Z,Submission Published,Open Charge Map Contributors
250675,Char.gy,Public,Operational,True,Pakeman House,nan,Surrey Row,London,SE1 0FX,GB,51.502343,-0.1029449,Pakeman House,1.0,Type 2 (Socket Only),5.1,5.1,Operational,Unknown,9318.948648648648,50.216666666666676,36.881025641025644,78,0.1295223084292132,2023-05-27T05:58:00Z,2023-05-27T05:58:00Z,Submission Published,Open Charge Map Contributors
236899,Char.gy,Public,Operational,True,29 Dolben Street,nan,London,nan,SE1 OUQ,GB,51.5048223,-0.1019588,29 Dolben Street,1.0,Type 2 (Socket Only),5.1,5.1,Operational,Unknown,9318.948648648648,50.216666666666676,36.881025641025644,78,0.1295223084292132,2023-03-14T22:16:00Z,2023-03-14T22:16:00Z,Submission Published,Open Charge Map Contributors
4473,(Unknown Operator),nan,Operational,True,Clipstone Mews,Westminster,London,nan,W1W 6BB,GB,51.521616,-0.140827,Clipstone Car Park,,nan,,nan,nan,Westminster,13608.4,50.216666666666676,36.881025641025644,78,0.20920358023104013,2011-05-17T17:23:00Z,2011-05-17T17:23:00Z,Submission Published,Open Charge Map Contributors
285889,Total Energies (UK),Public,Unknown,nan,105 Wilton Road,nan,Westminster,nan,SW1V 1DZ,GB,51.493336,-0.141381,Wilton Road,,Type 2 (Socket Only),22.0,22,Operational,Westminster,13608.4,50.216666666666676,36.881025641025644,78,0.22653646568619634,2023-12-07T08:10:00Z,2023-12-07T08:10:00Z,Imported and Published,UK National Charge Point Registry
285874,Shell Recharge Solutions (UK),Public - Pay At Location,Unknown,nan,Tachbrook Street Market,nan,London,nan,SW1V 2JS,GB,51.492475,-0.138771,Tachbrook Street Market,,Type 2 (Socket Only),3.7,3.7,Operational,Unknown,9318.948648648648,50.216666666666676,36.881025641025644,78,0.12811149217123538,2023-12-07T08:10:00Z,2023-12-07T08:10:00Z,Imported and Published,UK National Charge Point Registry
285870,Shell Recharge Solutions (UK),Public - Pay At Location,Unknown,nan,Tachbrook Street Market Plot 1302,nan,London,nan,SW1V 2JS,GB,51.492458,-0.138754,Tachbrook Street Market Plot 1302,,Type 2 (Socket Only),3.7,3.7,Operational,Unknown,9318.948648648648,50.216666666666676,36.881025641025644,78,0.12811149217123538,2023-12-07T08:10:00Z,2023-12-07T08:10:00Z,Imported and Published,UK National Charge Point Registry
252647,Shell Recharge Solutions (UK),Public - Pay At Location,nan,nan,Opp. Millbank Gardens,nan,London,nan,SW1P 4HX,GB,51.491,-0.12947,Opp. Millbank Gardens,,Type 2 (Socket Only),5.0,5,Operational,Unknown,9318.948648648648,50.216666666666676,36.881025641025644,78,0.12942153583935764,2023-05-04T09:44:00Z,2023-05-04T09:44:00Z,Imported and Published,UK National Charge Point Registry
253935,Shell Recharge Solutions (UK),Public - Pay At Location,nan,nan,nan,nan,London,nan,W1W 6JN,GB,51.520535,-0.143672,Shell Recharge/Ubitricity,,Type 2 (Socket Only),5.0,5,Operational,Unknown,9318.948648648648,50.216666666666676,36.881025641025644,78,0.12942153583935764,2023-05-04T09:46:00Z,2023-05-04T09:46:00Z,Imported and Published,UK National Charge Point Registry
285868,Shell Recharge Solutions (UK),Public - Pay At Location,Unknown,nan,Tachbrook Street Market,nan,London,nan,SW1V 2JS,GB,51.492448,-0.138901,Tachbrook Street Market,,Type 2 (Socket Only),3.7,3.7,Operational,Unknown,9318.948648648648,50.216666666666676,36.881025641025644,78,0.12811149217123538,2023-12-07T08:10:00Z,2023-12-07T08:10:00Z,Imported and Published,UK National Charge Point Registry
19476,Total Energies (UK),Public - Membership Required,Operational,True,Victoria Station Car Park,Westminster,London,nan,SW1W 9SJ,GB,51.4952621,-0.1457219,Victoria Station,3.0,Type 2 (Socket Only),7.0,7,Operational,Westminster,13608.4,50.216666666666676,36.881025641025644,78,0.2141603032352597,2017-01-20T06:34:00Z,2017-01-20T06:34:00Z,Submission Published,Open Charge Map Contributors
253076,Shell Recharge Solutions (UK),Public - Pay At Location,nan,nan,nan,nan,London,nan,SW1X 7BB,GB,51.499008,-0.150636,Shell Recharge/Ubitricity,,Type 2 (Socket Only),5.0,5,Operational,Unknown,9318.948648648648,50.216666666666676,36.881025641025644,78,0.12942153583935764,2023-05-04T09:45:00Z,2023-05-04T09:45:00Z,Imported and Published,UK National Charge Point Registry
173519,Shell Recharge Solutions (UK),Public - Pay At Location,nan,nan,Atterbury street,nan,London,nan,SW1P 4HU,GB,51.4909,-0.12871,Atterbury street,,Type 2 (Socket Only),3.7,3.7,Operational,Unknown,9318.948648648648,50.216666666666676,36.881025641025644,78,0.12811149217123538,2023-05-04T09:44:00Z,2023-05-04T09:44:00Z,Imported and Published,UK National Charge Point Registry
43413,POD Point (UK),Public,Unknown,nan,Herbrand Street,Camden,London,nan,WC1N 1HT,GB,51.523868,-0.12557,Herbrand Street RCP Car Park,2.0,BS1363 3 Pin 13 Amp; Type 2 (Socket Only),7.0,3; 7,Unknown,Camden,13988.4,50.216666666666676,36.881025641025644,78,0.21987613989444682,2023-10-09T13:29:00Z,2023-10-09T13:29:00Z,Submission Published,Open Charge Map Contributors
268062,Total Energies (UK),Public,nan,nan,Portpool Lane,nan,Camden Town,nan,EC1N 7UU,GB,51.5208,-0.112255,Portpool Lane,,Type 2 (Socket Only),22.0,22,Operational,Camden,13988.4,50.216666666666676,36.881025641025644,78,0.2336221653590821,2023-12-07T08:10:00Z,2023-12-07T08:10:00Z,Imported and Published,UK National Charge Point Registry
253114,Shell Recharge Solutions (UK),Public - Pay At Location,nan,nan,Opp.,nan,London,nan,SW1X 7DA,GB,51.499706,-0.151322,Opp.,,Type 2 (Socket Only),5.0,5,Operational,Unknown,9318.948648648648,50.216666666666676,36.881025641025644,78,0.12942153583935764,2023-05-04T09:45:00Z,2023-05-04T09:45:00Z,Imported and Published,UK National Charge Point Registry
236600,Char.gy,Public,Operational,True,St. Alphege,nan,Pocock Street,London,SE1 0BJ,GB,51.5020794,-0.1025556,St. Alphege,1.0,Type 2 (Socket Only),5.1,5.1,Operational,Unknown,9318.948648648648,50.216666666666676,36.881025641025644,78,0.1295223084292132,2023-03-01T10:43:00Z,2023-03-01T10:43:00Z,Submission Published,Open Charge Map Contributors
253542,Shell Recharge Solutions (UK),Public - Pay At Location,nan,nan,nan,nan,London,nan,W1K 2DN,GB,51.51107,-0.153803,Shell Recharge/Ubitricity,,Type 2 (Socket Only),5.0,5,Operational,Unknown,9318.948648648648,50.216666666666676,36.881025641025644,78,0.12942153583935764,2023-05-04T09:46:00Z,2023-05-04T09:46:00Z,Imported and Published,UK National Charge Point Registry
82091,Tesla (Tesla-only charging),Public - Membership Required,Operational,True,Clipstone Street Car Park,nan,London,nan,W1W 5DG,GB,51.521862,-0.140954,Citipark Clipstone Street,2.0,Tesla (Model S/X),7.0,7,Operational,Unknown,9318.948648648648,50.216666666666676,36.881025641025644,78,0.13280685065016745,2018-10-03T16:23:00Z,2018-10-03T16:23:00Z,Submission Published,Open Charge Map Contributors
252768,Shell Recharge Solutions (UK),Public - Pay At Location,nan,nan,nan,nan,London,nan,SE11 6DN,GB,51.493864,-0.112206,Shell Recharge/Ubitricity,,Type 2 (Socket Only),3.7,3.7,Operational,Unknown,9318.948648648648,50.216666666666676,36.881025641025644,78,0.12811149217123538,2023-05-04T09:45:00Z,2023-05-04T09:45:00Z,Imported and Published,UK National Charge Point Registry
252635,Shell Recharge Solutions (UK),Public - Pay At Location,nan,nan,30 Causton Street,nan,London,nan,SW1P 4AU,GB,51.490825,-0.131303,30 Causton Street,,Type 2 (Socket Only),3.7,3.7,Operational,Unknown,9318.948648648648,50.216666666666676,36.881025641025644,78,0.12811149217123538,2023-05-04T09:44:00Z,2023-05-04T09:44:00Z,Imported and Published,UK National Charge Point Registry
264622,Shell Recharge Solutions (UK),Public - Pay At Location,nan,nan,nan,nan,London,nan,SW1P 4DX,GB,51.491,-0.13327,Shell Recharge/Ubitricity,,Type 2 (Socket Only),5.0,5,Operational,Unknown,9318.948648648648,50.216666666666676,36.881025641025644,78,0.12942153583935764,2023-05-04T09:44:00Z,2023-05-04T09:44:00Z,Imported and Published,UK National Charge Point Registry
19468,Total Energies (UK),Public - Membership Required,Operational,True,Holland Street,Southwark,London,nan,SE1 9JT,GB,51.5070413145021,-0.100876875221729,Holland Street,1.0,Type 2 (Socket Only); Type 1 (J1772),7.0,4; 7,Operational,Southwark,14283.6,50.216666666666676,36.881025641025644,78,0.22401074673189525,2017-04-27T15:02:00Z,2017-04-27T15:02:00Z,Submission Published,Open Charge Map Contributors
252622,Shell Recharge Solutions (UK),Public - Pay At Location,nan,nan,Atterbury Street,nan,London,nan,SW1P 4HU,GB,51.490628,-0.128013,Atterbury Street,,Type 2 (Socket Only),3.7,3.7,Operational,Unknown,9318.948648648648,50.216666666666676,36.881025641025644,78,0.12811149217123538,2023-05-04T09:44:00Z,2023-05-04T09:44:00Z,Imported and Published,UK National Charge Point Registry
252693,Shell Recharge Solutions (UK),Public - Pay At Location,nan,nan,outside of  Tachbrook Street Market,nan,London,nan,SW1V 2JS,GB,51.492,-0.13879,outside of  Tachbrook Street Market,,Type 2 (Socket Only),3.7,3.7,Operational,Unknown,9318.948648648648,50.216666666666676,36.881025641025644,78,0.12811149217123538,2023-05-04T09:45:00Z,2023-05-04T09:45:00Z,Imported and Published,UK National Charge Point Registry
264649,Shell Recharge Solutions (UK),Public - Pay At Location,nan,nan,nan,nan,London,nan,W1U 2EU,GB,51.517,-0.15009,Shell Recharge/Ubitricity,,Type 2 (Socket Only),5.0,5,Operational,Unknown,9318.948648648648,50.216666666666676,36.881025641025644,78,0.12942153583935764,2023-05-04T09:46:00Z,2023-05-04T09:46:00Z,Imported and Published,UK National Charge Point Registry
236856,Char.gy,Public,Operational,True,10 Rushworth Street,nan,London,nan,SE1 0RB,GB,51.5016014,-0.1023439,10 Rushworth Street,1.0,Type 2 (Socket Only),5.1,5.1,Operational,Unknown,9318.948648648648,50.216666666666676,36.881025641025644,78,0.1295223084292132,2023-03-01T10:15:00Z,2023-03-01T10:15:00Z,Submission Published,Open Charge Map Contributors
253520,Shell Recharge Solutions (UK),Public - Pay At Location,nan,nan,Junc. Park Street,nan,London,nan,W1K 7TW,GB,51.51,-0.15461,Junc. Park Street,,Type 2 (Socket Only),5.0,5,Operational,Unknown,9318.948648648648,50.216666666666676,36.881025641025644,78,0.12942153583935764,2023-05-04T09:46:00Z,2023-05-04T09:46:00Z,Imported and Published,UK National Charge Point Registry
